~Version Information Section
 VERS.      2.0         :CWLS LOG ASCII STANDARD - VERSION 2.0
 WRAP.      NO          :SINGLE LINE PER DEPTH STEP
 CREA.      8/24/2011 12:51:22
~Well Information Section
#MNEM.UNIT                      VALUE/NAME                 DESCRIPTION
#----.----     ----------------------------------   --------------------
 STRT .FT           1140.0000                         :START DEPTH
 STOP .FT          13950.0000                         :STOP DEPTH
 STEP .FT              0.5000                         :STEP VALUE
 NULL .             -999.0000                         :NULL VALUE
 SRVC .          SCH                                  :Service Company/Logging company
 DATE .          08/24/2011                           :LAS file Creation Date
 WELL .          PENOBSCOT L-30                       :Well Name
 COMP .          SHELL CANADA RESOURCES LIMITED       :Company
 FLD  .          Wildcat                              :Field
 STATE.          Nova Scotia Shelf                    :State
 COUNT.          Canada                               :Country
 LOC  .          44� 09' 43.558"N LAT|60� 04' 0   :Location
 LATI .          0                                    :Latitude/Northing
 LONG .          0                                    :Longitude/Easting
 PDAT .          RT                                   :Permanent Datum
 EPDAT.          0.0000                               :Elevation of Permanent Datum
 LGMEA.          RT                                   :Log Measured from
 APDAT.          98.0000                              :Elevation Above Permanent Datum
 KB   .          99.0000                              :KB Elevation
 GL   .          -451.0000                            :GL Elevation
 RWS  .          0                                    :Def_Rw
 WST  .          0                                    :Def_Rwt
 ERT  .          0.0000                               :RT Elevation
 CNTY .          NOVA SCOTIA SHELF                    :County
~Curve Information Section
#MNEM  .UNIT         CURVE DESCRIPTION
#----  .----         -------------------------
 DEPTH .FT           :1 Depth
 CALD  .IN           :2 Caliper    Caliper - Density
 CALS  .IN           :3 Caliper    Caliper - Sonic
 DEPT  .FT           :4 Depth
 DRHO  .G/CC         :5 Drho       Delta Rho
 DT    .US/F         :6 Sonic      Delta-T
 GRD   .GAPI         :7 GammaRay   Gamma Ray - Density
 GRS   .GAPI         :8 GammaRay   Gamma Ray - Sonic
 ILD   .OHMM         :9 DeepRes    Deep Induction Standard Processed Resistivity
 ILM   .OHMM         :10 MedRes     Medium Induction Standard Processed Resistivity
 LL8   .OHMM         :11 ShalRes    Latero-Log 8
 NPHILS.V/V          :12 Neutron    Neutron Porosity - Ls Mtx
 NPHISS.V/V          :13 Neutron    Neutron Porosity - Ss Mtx
 RHOB  .G/CC         :14 Density    Bulk Density
 SP    .MV           :15 SP         Spontaneous Potential
~Parameter Information Section
#MNEM.UNIT                      VALUE                       DESCRIPTION
#----.----     ----------------------------------   --------------------
~A  DEPTH     CALD      CALS      DEPT      DRHO       DT        GRD       GRS       ILD       ILM       LL8     NPHILS    NPHISS     RHOB       SP    
# ...
  7977.0000    9.6180    9.0040  7977.0000    0.0010   64.3590   21.0850   21.0970   10.4850   16.9670   44.0790 -999.0000    0.1250    2.5750 -149.3850
  7977.5000    9.6240    9.0070  7977.5000    0.0080   64.1120   21.0630   20.7570   11.0460   17.4090   50.6060 -999.0000    0.1220    2.5880 -148.5620
  7978.0000    9.6300    9.0100  7978.0000   -0.0020   64.4010   20.7060   21.9780   10.8840   17.8620   61.2030 -999.0000    0.1230    2.5770 -147.7410
  7978.5000    9.6340    9.0130  7978.5000   -0.0100   64.6890   20.3480   22.8070   10.6880   18.1730   56.8130 -999.0000    0.1240    2.5700 -146.5340
  7979.0000    9.6150    9.0160  7979.0000   -0.0020   64.7290   20.5530   22.7160   10.4100   17.7450   50.4330 -999.0000    0.1210    2.5820 -145.2530
  7979.5000    9.5960    9.0150  7979.5000    0.0020   64.2060   21.6030   22.6210   10.5040   17.4070   48.9470 -999.0000    0.1170    2.5780 -143.9720
  7980.0000    9.5780    9.0110  7980.0000   -0.0010   63.6870   22.6530   22.5490   10.6790   16.9680   47.9690 -999.0000    0.1140    2.5790 -143.0420
  7980.5000    9.5590    9.0070  7980.5000    0.0020   63.1670   23.7030   23.4230   10.8550   17.2290   42.5380 -999.0000    0.1100    2.5800 -142.3630
  7981.0000    9.5640    9.0040  7981.0000    0.0080   62.6470   24.7520   24.2910   11.0350   17.6930   38.6010 -999.0000    0.1080    2.5750 -141.6840
  7981.5000    9.5780    9.0000  7981.5000    0.0050   62.1030   25.3850   25.1620   11.1990   18.1700   39.8330 -999.0000    0.1120    2.5640 -141.0060
  7982.0000    9.5910    8.9960  7982.0000   -0.0010   63.0340   24.8850   25.8490   10.6940   18.8470   40.9010 -999.0000    0.1170    2.5460 -141.1080
  7982.5000    9.6040    8.9920  7982.5000   -0.0030   64.0100   24.3780   23.6030   10.2560   18.4520   42.2930 -999.0000    0.1210    2.5370 -141.6570
  7983.0000    9.6030    8.9890  7983.0000   -0.0010   64.9850   24.7910   21.3650    9.8370   17.8340   40.8500 -999.0000    0.1260    2.5520 -142.2060
  7983.5000    9.4660    8.9850  7983.5000    0.0060   65.5900   25.8210   21.5310    9.4340   17.2370   38.9610 -999.0000    0.1300    2.5550 -142.7550
  7984.0000    9.3300    8.9810  7984.0000    0.0120   64.2450   26.8510   23.4360    9.0360   16.6600   37.1600 -999.0000    0.1350    2.5480 -143.5690
  7984.5000    9.1940    8.9780  7984.5000    0.0160   64.3870   27.1700   25.3430    8.2160   15.3410   34.9120 -999.0000    0.1400    2.5390 -144.9970
  7985.0000    9.0620    8.9740  7985.0000    0.0170   65.3800   26.8830   25.9160    7.4470   14.0070   38.1970 -999.0000    0.1450    2.5140 -146.4290
  7985.5000    9.0190    8.9700  7985.5000    0.0150   66.3740   27.8120   25.1850    6.7490   12.6480   45.9160 -999.0000    0.1550    2.4960 -147.8620
  7986.0000    8.9730    8.9660  7986.0000    0.0120   67.3670   28.3760   25.0160    6.0720   11.1450   35.4270 -999.0000    0.1650    2.4880 -149.7020
  7986.5000    8.9280    8.9590  7986.5000    0.0090   68.3600   27.8930   26.7800    5.1500    8.9680   19.7330 -999.0000    0.1750    2.4630 -152.0350
  7987.0000    8.8810    8.9530  7987.0000    0.0070   69.1800   27.3990   28.5450    4.3680    7.2160   21.4980 -999.0000    0.1960    2.4400 -154.3690
  7987.5000    8.8260    8.9460  7987.5000    0.0280   69.4500   27.9170   29.3260    3.7050    5.8070   24.4510 -999.0000    0.2160    2.4190 -156.7040
  7988.0000    8.7710    8.9390  7988.0000    0.0360   71.2490   29.3770   29.8070    3.1420    4.6730   14.3210 -999.0000    0.2320    2.3760 -159.0390
  7988.5000    8.7140    8.9320  7988.5000    0.0340   72.8500   30.8300   30.2890    2.6650    3.8930   14.0920 -999.0000    0.2380    2.3220 -161.3010
  7989.0000    8.7190    8.9250  7989.0000    0.0380   73.9880   32.2850   30.7680    2.2610    3.3300   13.8430 -999.0000    0.2430    2.3090 -163.3130
  7989.5000    8.7400    8.9190  7989.5000    0.0340   78.1690   33.7440   31.4300    1.9020    2.8490   11.9510 -999.0000    0.2540    2.2900 -165.3240
  7990.0000    8.7610    8.9120  7990.0000    0.0230   82.6700   32.7770   34.2420    1.4840    2.4370    8.4630 -999.0000    0.2750    2.2690 -167.3390
  7990.5000    8.7820    8.9050  7990.5000    0.0150   84.6790   31.1310   37.0450    1.1570    2.0850    7.0340 -999.0000    0.2960    2.2590 -169.2120
  7991.0000    8.8030    8.8980  7991.0000    0.0170   86.6090   29.9560   39.8490    0.9030    1.7840    6.1860 -999.0000    0.3130    2.2640 -169.2880
  7991.5000    8.8240    8.8910  7991.5000    0.0240   86.9710   29.4260   42.5040    0.7040    1.5260    5.2950 -999.0000    0.2960    2.2690 -169.3870
  7992.0000    8.8450    8.8850  7992.0000    0.0340   86.3240   31.1750   39.1580    0.5490    1.2310    4.5300 -999.0000    0.2820    2.2900 -169.4850
  7992.5000    8.8660    8.8780  7992.5000    0.0330   85.6780   33.0740   35.0580    0.4680    0.8370    3.9010 -999.0000    0.2830    2.3110 -169.5860
  7993.0000    8.8870    8.8720  7993.0000    0.0240   85.0340   34.9660   30.4330    0.4280    0.6460    3.6980 -999.0000    0.2840    2.3220 -169.3110
  7993.5000    8.8530    8.8800  7993.5000    0.0150   85.8010   38.5650   33.8080    0.3910    0.5140    3.1830 -999.0000    0.2830    2.3310 -168.7260
  7994.0000    8.8180    8.8890  7994.0000    0.0060   86.8430   42.6680   37.9880    0.3450    0.5550    2.1660 -999.0000    0.2740    2.3490 -165.7090
  7994.5000    8.8370    8.8970  7994.5000    0.0020   87.5390   46.5300   42.1600    0.3600    0.6300    1.4280 -999.0000    0.2650    2.3910 -162.0000
  7995.0000    8.9360    8.9050  7995.0000    0.0010   86.0460   47.5700   46.3320    0.3850    0.7170    1.9960 -999.0000    0.2570    2.4340 -155.8050
  7995.5000    9.0360    8.9130  7995.5000    0.0000   84.8020   40.9190   50.5070    0.4130    0.8150    2.8720 -999.0000    0.2430    2.4760 -149.3610
  7996.0000    9.1350    8.9210  7996.0000    0.0050   81.4470   37.1260   53.2810    0.4830    0.9450    3.6220 -999.0000    0.2180    2.5190 -144.8530
  7996.5000    9.2340    8.9290  7996.5000    0.0110   76.5710   35.0410   52.5400    0.6670    1.1090    3.8820 -999.0000    0.1920    2.5450 -141.6490
  7997.0000    9.3140    8.9370  7997.0000    0.0200   71.6950   33.6020   46.9730    0.9210    1.3750    4.6790 -999.0000    0.1670    2.5590 -139.5260
  7997.5000    9.3440    8.9450  7997.5000    0.0290   67.3650   33.3830   41.3980    1.2720    1.8140    5.8960 -999.0000    0.1450    2.5430 -137.3950
  7998.0000    9.3760    8.9530  7998.0000    0.0370   63.3960   34.9080   37.1920    1.7570    2.3940    6.8010 -999.0000    0.1650    2.5450 -135.2760
  7998.5000    9.1490    8.9560  7998.5000    0.0390   65.2360   35.4070   34.7120    2.4260    3.0710    7.9410 -999.0000    0.1820    2.5100 -134.4390
  7999.0000    8.8960    8.9510  7999.0000    0.0230   67.7900   36.8010   35.5040    2.6810    3.5440   14.1480 -999.0000    0.1990    2.4650 -133.6240
  7999.5000    8.7780    8.9460  7999.5000    0.0140   71.3330   39.4310   36.2600    2.9020    4.0900   23.2530 -999.0000    0.2160    2.4180 -134.1950
  8000.0000    8.9230    8.9410  8000.0000    0.0300   75.4410   42.0750   37.0150    3.1420    4.7200   20.4750 -999.0000    0.2230    2.3990 -135.5950
  8000.5000    9.0700    8.9360  8000.5000    0.0210   79.7070   42.6900   37.7690    3.3850    5.2480   18.3060 -999.0000    0.2250    2.4210 -136.9950
  8001.0000    9.2170    8.9310  8001.0000    0.0040   80.9500   40.8890   39.1260    3.2140    4.7460   16.3690 -999.0000    0.2180    2.4700 -138.3960
  8001.5000    9.3640    8.9260  8001.5000    0.0010   78.0820   41.7830   40.6700    3.0610    4.3830   13.8240 -999.0000    0.2020    2.5200 -138.2880
  8002.0000    9.5110    8.9220  8002.0000    0.0170   75.1330   45.3800   42.2150    2.9150    4.0470   10.6570 -999.0000    0.1860    2.5490 -137.1100
  8002.5000    9.5900    8.9170  8002.5000    0.0270   72.1830   48.9930   43.7560    2.7760    3.6250    8.2150 -999.0000    0.1620    2.5240 -135.9930
  8003.0000    9.6390    8.9120  8003.0000    0.0300   67.8220   51.6530   45.5120    2.6430    3.6860    6.7150 -999.0000    0.1730    2.5050 -131.1100
