~Version Information Section
 VERS.      2.0         :CWLS LOG ASCII STANDARD - VERSION 2.0
 WRAP.      NO          :SINGLE LINE PER DEPTH STEP
 CREA.      8/24/2011 12:51:22
~Well Information Section
#MNEM.UNIT                      VALUE/NAME                 DESCRIPTION
#----.----     ----------------------------------   --------------------
 STRT .FT           1140.0000                         :START DEPTH
 STOP .FT          13950.0000                         :STOP DEPTH
 STEP .FT              0.5000                         :STEP VALUE
 NULL .             -999.0000                         :NULL VALUE
 SRVC .          SCH                                  :Service Company/Logging company
 DATE .          08/24/2011                           :LAS file Creation Date
 WELL .          PENOBSCOT L-30                       :Well Name
 COMP .          SHELL CANADA RESOURCES LIMITED       :Company
 FLD  .          Wildcat                              :Field
 STATE.          Nova Scotia Shelf                    :State
 COUNT.          Canada                               :Country
 LOC  .          44� 09' 43.558"N LAT|60� 04' 0   :Location
 LATI .          0                                    :Latitude/Northing
 LONG .          0                                    :Longitude/Easting
 PDAT .          RT                                   :Permanent Datum
 EPDAT.          0.0000                               :Elevation of Permanent Datum
 LGMEA.          RT                                   :Log Measured from
 APDAT.          98.0000                              :Elevation Above Permanent Datum
 KB   .          99.0000                              :KB Elevation
 GL   .          -451.0000                            :GL Elevation
 RWS  .          0                                    :Def_Rw
 WST  .          0                                    :Def_Rwt
 ERT  .          0.0000                               :RT Elevation
 CNTY .          NOVA SCOTIA SHELF                    :County
~Curve Information Section
#MNEM  .UNIT         CURVE DESCRIPTION
#----  .----         -------------------------
 DEPTH .FT           :1 Depth
 CALD  .IN           :2 Caliper    Caliper - Density
 CALS  .IN           :3 Caliper    Caliper - Sonic
 DEPT  .FT           :4 Depth
 DRHO  .G/CC         :5 Drho       Delta Rho
 DT    .US/F         :6 Sonic      Delta-T
 GRD   .GAPI         :7 GammaRay   Gamma Ray - Density
 GRS   .GAPI         :8 GammaRay   Gamma Ray - Sonic
 ILD   .OHMM         :9 DeepRes    Deep Induction Standard Processed Resistivity
 ILM   .OHMM         :10 MedRes     Medium Induction Standard Processed Resistivity
 LL8   .OHMM         :11 ShalRes    Latero-Log 8
 NPHILS.V/V          :12 Neutron    Neutron Porosity - Ls Mtx
 NPHISS.V/V          :13 Neutron    Neutron Porosity - Ss Mtx
 RHOB  .G/CC         :14 Density    Bulk Density
 SP    .MV           :15 SP         Spontaneous Potential
~Parameter Information Section
#MNEM.UNIT                      VALUE                       DESCRIPTION
#----.----     ----------------------------------   --------------------
~A  DEPTH     CALD      CALS      DEPT      DRHO       DT        GRD       GRS       ILD       ILM       LL8     NPHILS    NPHISS     RHOB       SP    
# ...
  4558.5000   14.1820   11.5440  4558.5000    0.1920  108.8980   75.6660   75.2800    1.6040    1.7550    2.9480 -999.0000    0.4850    2.3540  -88.4760
  4559.0000   14.0350   11.6650  4559.0000    0.1700  113.5100   76.8890   74.6030    1.6800    1.7710    2.4650 -999.0000    0.4870    2.3350  -85.6980
  4559.5000   13.9100   11.7850  4559.5000    0.1470  112.0390   75.8700   73.2950    1.6940    1.7870    2.1890 -999.0000    0.4930    2.3160  -82.9440
  4560.0000   14.5280   11.7110  4560.0000    0.1540  104.9660   74.8550   70.3040    1.7070    1.8040    2.0180 -999.0000    0.4990    2.3320  -82.1480
  4560.5000   14.2950   11.5510  4560.5000    0.1210  101.0850   73.8400   65.9520    1.7220    1.8200    2.2130 -999.0000    0.4840    2.3430  -83.2580
  4561.0000   14.4850   11.7790  4561.0000    0.0920  100.7700   74.1100   64.3840    1.7360    1.8360    2.5010 -999.0000    0.4850    2.2970  -84.6480
  4561.5000   14.8580   12.0120  4561.5000    0.1270  105.6740   75.2730   66.8600    1.7500    1.8530    2.8670 -999.0000    0.4870    2.3420  -86.0390
  4562.0000   14.5730   12.2020  4562.0000    0.1120  113.8580   76.0800   69.8840    1.7640    1.8700    2.5990 -999.0000    0.4830    2.3500  -85.8790
  4562.5000   14.0120   12.0950  4562.5000    0.0860  112.8650   74.2630   71.6350    1.7790    1.8860    2.2730 -999.0000    0.4780    2.3470  -85.2920
  4563.0000   13.0800   12.1290  4563.0000    0.0670  113.2050   72.4890   72.9940    1.8010    1.9040    2.3050 -999.0000    0.4590    2.3490  -84.7000
  4563.5000   13.1460   12.0650  4563.5000    0.0610  109.2710   72.6830   74.5110    1.7850    1.9210    2.3460 -999.0000    0.4410    2.3820  -84.7200
  4564.0000   13.2710   11.9840  4564.0000    0.0500  110.1260   73.7790   74.6650    1.7550    1.9380    2.3870 -999.0000    0.4240    2.3980  -84.7950
  4564.5000   13.5900   12.0530  4564.5000    0.0480  108.4190   74.8780   71.4320    1.7260    1.9550    2.4290 -999.0000    0.4150    2.3970  -85.2320
  4565.0000   13.9140   12.0270  4565.0000    0.0530  105.1210   75.2500   69.4420    1.6970    1.9320    2.4790 -999.0000    0.4050    2.4100  -86.8410
  4565.5000   14.3070   11.8610  4565.5000    0.0440  102.7800   76.1280   69.6170    1.6620    1.9110    2.3760 -999.0000    0.3990    2.4290  -88.4900
  4566.0000   13.5570   11.6250  4566.0000    0.0260  100.3710   77.8830   70.6620    1.6200    1.8850    2.2600 -999.0000    0.4090    2.4500  -91.5030
  4566.5000   13.9220   11.3890  4566.5000    0.0880   98.6900   78.9360   71.7820    1.5800    1.8360    2.1910 -999.0000    0.4190    2.5070  -94.3130
  4567.0000   14.8070   11.4590  4567.0000    0.0790   97.8200   81.1800   73.5550    1.5280    1.7880    2.5680 -999.0000    0.4140    2.4600  -95.6830
  4567.5000   14.3650   11.5820  4567.5000    0.0580  100.9580   83.9880   75.2980    1.5410    1.7420    2.8160 -999.0000    0.4080    2.4090  -94.3770
  4568.0000   14.5980   11.6610  4568.0000    0.0670  102.3880   85.7440   77.0790    1.5610    1.6970    2.5920 -999.0000    0.4020    2.4230  -91.2200
  4568.5000   14.3000   11.6950  4568.5000    0.0830   99.4590   86.8840   75.9600    1.5810    1.7490    2.4190 -999.0000    0.4110    2.4350  -89.4640
  4569.0000   14.4380   11.7280  4569.0000    0.0780  100.4580   87.6910   74.4970    1.6060    1.8020    2.2930 -999.0000    0.4200    2.4140  -89.0110
  4569.5000   14.0460   11.7620  4569.5000    0.0870  102.3160   88.5000   73.5500    1.6590    1.8570    2.4200 -999.0000    0.4310    2.3970  -90.0760
  4570.0000   14.2570   11.7960  4570.0000    0.0690  102.6960   89.0800   74.4610    1.7130    1.9140    2.5130 -999.0000    0.4430    2.3720  -91.9440
  4570.5000   14.6120   11.8570  4570.5000    0.0540  101.9180   89.2980   76.6120    1.7690    1.9720    2.4110 -999.0000    0.4700    2.3310  -92.1930
  4571.0000   14.0360   11.9180  4571.0000    0.0440  100.3510   89.5140   78.8320    1.8270    2.0320    2.3570 -999.0000    0.5010    2.3080  -92.0080
  4571.5000   13.7220   11.8720  4571.5000    0.0690   97.0260   88.4400   80.7690    1.8870    2.0940    2.6910 -999.0000    0.5190    2.3140  -90.6410
  4572.0000   14.1890   11.7380  4572.0000    0.0810   99.0120   86.5960   80.8460    1.9370    2.1710    2.6610 -999.0000    0.4880    2.3250  -89.8480
  4572.5000   12.8790   11.7860  4572.5000    0.0150  103.2520   87.6340   79.1310    1.8910    2.1240    2.6060 -999.0000    0.4650    2.3040  -89.9600
  4573.0000   12.6770   11.8980  4573.0000    0.0190  109.5610   89.5900   79.3430    1.8530    2.0670    2.7650 -999.0000    0.4420    2.3140  -88.9080
  4573.5000   12.8020   12.0380  4573.5000    0.0390  116.3040   91.5470   81.5040    1.8160    2.0110    2.5070 -999.0000    0.4200    2.3430  -87.3570
  4574.0000   12.9270   12.0950  4574.0000    0.0650  121.4050   93.5000   83.6540    1.7790    1.9560    2.2220 -999.0000    0.4160    2.3790  -85.7960
  4574.5000   13.0540   11.9620  4574.5000    0.0840  119.9730   92.2480   85.4180    1.7430    1.8850    2.0870 -999.0000    0.4210    2.3940  -85.7090
  4575.0000   12.8540   11.6870  4575.0000    0.0620  114.8680   88.7500   86.0980    1.7070    1.8960    1.9820 -999.0000    0.4180    2.3630  -85.9100
  4575.5000   12.5180   11.4180  4575.5000    0.0700  107.9940   85.0870   85.0070    1.6700    1.9130    2.0770 -999.0000    0.4000    2.3380  -86.5980
  4576.0000   12.5780   11.2650  4576.0000    0.0770  105.6950   81.4300   83.9110    1.6330    1.9370    2.2260 -999.0000    0.3770    2.3340  -88.1590
  4576.5000   12.6410   11.2790  4576.5000    0.0670  103.5300   81.2850   85.4370    1.5970    1.9140    2.6210 -999.0000    0.3690    2.3260  -89.7230
  4577.0000   12.7030   11.3710  4577.0000    0.0510  104.0650   81.2110   87.7090    1.5620    1.8750    3.2430 -999.0000    0.3630    2.3140  -90.7540
  4577.5000   12.7620   11.4220  4577.5000    0.0590  105.5660   81.0690   86.6250    1.5280    1.8370    2.9710 -999.0000    0.3720    2.3070  -89.4220
  4578.0000   13.0340   11.3590  4578.0000    0.0880  104.8990   80.9280   83.3130    1.5000    1.7900    2.6160 -999.0000    0.3790    2.3350  -88.1840
  4578.5000   13.3260   11.1970  4578.5000    0.1210  103.4860   80.7850   80.7320    1.4750    1.7400    2.2520 -999.0000    0.3890    2.3930  -91.8890
  4579.0000   13.2430   11.1540  4579.0000    0.0820  102.3560   80.6400   79.1070    1.4490    1.6920    2.5100 -999.0000    0.4090    2.3740  -99.4230
  4579.5000   13.1080   11.1200  4579.5000    0.0510  102.1980   82.2550   77.4800    1.4250    1.6450    3.0020 -999.0000    0.4240    2.3500 -105.6180
  4580.0000   13.1830   11.1830  4580.0000    0.0450  102.8200   84.3550   78.2450    1.4000    1.6260    2.9090 -999.0000    0.4280    2.3620 -107.5580
  4580.5000   13.5670   11.2470  4580.5000    0.0570  103.4430   85.7580   79.7610    1.3760    1.6210    2.7910 -999.0000    0.4320    2.3750 -105.4620
  4581.0000   13.9500   11.3740  4581.0000    0.0750  104.0660   86.8830   81.1570    1.4280    1.6850    2.8290 -999.0000    0.4480    2.3620 -103.6330
  4581.5000   14.3340   11.5330  4581.5000    0.1110  104.1890   88.5150   81.2500    1.4840    1.7470    2.6880 -999.0000    0.4860    2.3610 -100.3450
  4582.0000   14.5620   11.5890  4582.0000    0.0800  102.9130   90.7690   81.2810    1.5430    1.8110    2.4600 -999.0000    0.4980    2.3320  -96.1510
  4582.5000   13.5190   11.5000  4582.5000    0.0180  102.3350   92.9680   81.6060    1.6040    1.8780    2.2110 -999.0000    0.5110    2.2830  -91.9510
  4583.0000   13.3160   11.4200  4583.0000    0.0560  102.2120   90.2380   83.0430    1.6680    1.9820    2.4780 -999.0000    0.4920    2.3040  -89.7740
  4583.5000   13.6050   11.5720  4583.5000    0.1000  105.0960   87.3980   84.1990    1.7220    1.9750    2.8570 -999.0000    0.4730    2.3160  -88.5900
  4584.0000   14.0090   11.7220  4584.0000    0.1270  109.7230   85.0470   84.5370    1.7530    1.9620    3.1000 -999.0000    0.4670    2.3020  -88.1540
  4584.5000   13.8130   11.8720  4584.5000    0.1110  114.0070   86.0650   84.8690    1.7850    1.9490    2.4660 -999.0000    0.4770    2.2480  -87.8350
