~Version Information Section
 VERS.      2.0         :CWLS LOG ASCII STANDARD - VERSION 2.0
 WRAP.      NO          :SINGLE LINE PER DEPTH STEP
 CREA.      8/24/2011 12:51:22
~Well Information Section
#MNEM.UNIT                      VALUE/NAME                 DESCRIPTION
#----.----     ----------------------------------   --------------------
 STRT .FT           1140.0000                         :START DEPTH
 STOP .FT          13950.0000                         :STOP DEPTH
 STEP .FT              0.5000                         :STEP VALUE
 NULL .             -999.0000                         :NULL VALUE
 SRVC .          SCH                                  :Service Company/Logging company
 DATE .          08/24/2011                           :LAS file Creation Date
 WELL .          PENOBSCOT L-30                       :Well Name
 COMP .          SHELL CANADA RESOURCES LIMITED       :Company
 FLD  .          Wildcat                              :Field
 STATE.          Nova Scotia Shelf                    :State
 COUNT.          Canada                               :Country
 LOC  .          44� 09' 43.558"N LAT|60� 04' 0   :Location
 LATI .          0                                    :Latitude/Northing
 LONG .          0                                    :Longitude/Easting
 PDAT .          RT                                   :Permanent Datum
 EPDAT.          0.0000                               :Elevation of Permanent Datum
 LGMEA.          RT                                   :Log Measured from
 APDAT.          98.0000                              :Elevation Above Permanent Datum
 KB   .          99.0000                              :KB Elevation
 GL   .          -451.0000                            :GL Elevation
 RWS  .          0                                    :Def_Rw
 WST  .          0                                    :Def_Rwt
 ERT  .          0.0000                               :RT Elevation
 CNTY .          NOVA SCOTIA SHELF                    :County
~Curve Information Section
#MNEM  .UNIT         CURVE DESCRIPTION
#----  .----         -------------------------
 DEPTH .FT           :1 Depth
 CALD  .IN           :2 Caliper    Caliper - Density
 CALS  .IN           :3 Caliper    Caliper - Sonic
 DEPT  .FT           :4 Depth
 DRHO  .G/CC         :5 Drho       Delta Rho
 DT    .US/F         :6 Sonic      Delta-T
 GRD   .GAPI         :7 GammaRay   Gamma Ray - Density
 GRS   .GAPI         :8 GammaRay   Gamma Ray - Sonic
 ILD   .OHMM         :9 DeepRes    Deep Induction Standard Processed Resistivity
 ILM   .OHMM         :10 MedRes     Medium Induction Standard Processed Resistivity
 LL8   .OHMM         :11 ShalRes    Latero-Log 8
 NPHILS.V/V          :12 Neutron    Neutron Porosity - Ls Mtx
 NPHISS.V/V          :13 Neutron    Neutron Porosity - Ss Mtx
 RHOB  .G/CC         :14 Density    Bulk Density
 SP    .MV           :15 SP         Spontaneous Potential
~Parameter Information Section
#MNEM.UNIT                      VALUE                       DESCRIPTION
#----.----     ----------------------------------   --------------------
~A  DEPTH     CALD      CALS      DEPT      DRHO       DT        GRD       GRS       ILD       ILM       LL8     NPHILS    NPHISS     RHOB       SP    
# ...
  2862.5000 -999.0000   12.1110  2862.5000 -999.0000  102.0110 -999.0000   23.8650    1.3000    1.5640    1.4020 -999.0000 -999.0000 -999.0000  -96.3500
  2863.0000 -999.0000   12.1140  2863.0000 -999.0000  102.4940 -999.0000   24.8300    1.3030    1.5340    1.4090 -999.0000 -999.0000 -999.0000  -96.8710
  2863.5000 -999.0000   12.1170  2863.5000 -999.0000  102.3870 -999.0000   24.5890    1.3080    1.5040    1.4140 -999.0000 -999.0000 -999.0000  -97.3930
  2864.0000 -999.0000   12.1200  2864.0000 -999.0000  102.2360 -999.0000   24.2450    1.2720    1.4750    1.3550 -999.0000 -999.0000 -999.0000  -97.9300
  2864.5000 -999.0000   12.1220  2864.5000 -999.0000  102.6540 -999.0000   23.9090    1.2230    1.4470    1.3120 -999.0000 -999.0000 -999.0000  -97.1390
  2865.0000 -999.0000   12.1250  2865.0000 -999.0000  103.0780 -999.0000   22.2280    1.1750    1.4130    1.2700 -999.0000 -999.0000 -999.0000  -96.6160
  2865.5000 -999.0000   12.1280  2865.5000 -999.0000  103.7960 -999.0000   20.3300    1.1300    1.3760    1.2290 -999.0000 -999.0000 -999.0000  -97.9510
  2866.0000 -999.0000   12.1310  2866.0000 -999.0000  104.5130 -999.0000   18.4450    1.0860    1.3410    1.1900 -999.0000 -999.0000 -999.0000  -97.4890
  2866.5000 -999.0000   12.1340  2866.5000 -999.0000  105.2310 -999.0000   18.8770    1.0440    1.3060    1.1520 -999.0000 -999.0000 -999.0000  -96.9820
  2867.0000 -999.0000   12.1300  2867.0000 -999.0000  105.8010 -999.0000   20.2340    1.0030    1.2720    1.1150 -999.0000 -999.0000 -999.0000  -98.6720
  2867.5000 -999.0000   12.1270  2867.5000 -999.0000  105.3330 -999.0000   19.3480    0.9820    1.2380    1.0650 -999.0000 -999.0000 -999.0000  -98.1960
  2868.0000 -999.0000   12.1230  2868.0000 -999.0000  104.8660 -999.0000   18.4530    0.9670    1.2060    1.0710 -999.0000 -999.0000 -999.0000  -97.0530
  2868.5000 -999.0000   12.1200  2868.5000 -999.0000  104.3980 -999.0000   17.5570    0.9520    1.1730    1.0810 -999.0000 -999.0000 -999.0000  -95.8900
  2869.0000 -999.0000   12.1160  2869.0000 -999.0000  103.9310 -999.0000   16.9230    0.9420    1.1890    1.0900 -999.0000 -999.0000 -999.0000  -96.6360
  2869.5000 -999.0000   12.1130  2869.5000 -999.0000  103.4630 -999.0000   17.5190    0.9680    1.2080    1.1000 -999.0000 -999.0000 -999.0000  -97.3330
  2870.0000 -999.0000   12.1090  2870.0000 -999.0000  102.9950 -999.0000   18.4160    0.9880    1.2270    1.1090 -999.0000 -999.0000 -999.0000  -97.1090
  2870.5000 -999.0000   12.1060  2870.5000 -999.0000  102.7100 -999.0000   19.7680    1.0080    1.2460    1.1190 -999.0000 -999.0000 -999.0000  -96.5450
  2871.0000 -999.0000   12.1020  2871.0000 -999.0000  103.0650 -999.0000   20.3340    1.0230    1.2650    1.1290 -999.0000 -999.0000 -999.0000  -95.5400
  2871.5000 -999.0000   12.0990  2871.5000 -999.0000  103.4190 -999.0000   20.1340    1.0240    1.2850    1.1390 -999.0000 -999.0000 -999.0000  -95.2890
  2872.0000 -999.0000   12.0960  2872.0000 -999.0000  103.7740 -999.0000   19.9380    1.0250    1.3020    1.1500 -999.0000 -999.0000 -999.0000  -96.3540
  2872.5000 -999.0000   12.0830  2872.5000 -999.0000  104.1290 -999.0000   19.7420    1.0260    1.2990    1.1600 -999.0000 -999.0000 -999.0000  -97.4220
  2873.0000 -999.0000   12.0780  2873.0000 -999.0000  103.7990 -999.0000   19.5470    1.0270    1.2960    1.1700 -999.0000 -999.0000 -999.0000  -98.0380
  2873.5000 -999.0000   12.0730  2873.5000 -999.0000  103.3770 -999.0000   19.3520    1.0670    1.2930    1.1880 -999.0000 -999.0000 -999.0000  -97.6090
  2874.0000 -999.0000   12.0690  2874.0000 -999.0000  102.9550 -999.0000   19.6170    1.1110    1.2900    1.2300 -999.0000 -999.0000 -999.0000  -97.1740
  2874.5000 -999.0000   12.0650  2874.5000 -999.0000  102.7930 -999.0000   20.8140    1.1570    1.3690    1.2730 -999.0000 -999.0000 -999.0000  -96.7410
  2875.0000 -999.0000   12.0550  2875.0000 -999.0000  103.4780 -999.0000   22.2710    1.2050    1.4460    1.3270 -999.0000 -999.0000 -999.0000  -96.6760
  2875.5000 -999.0000   12.0570  2875.5000 -999.0000  103.1100 -999.0000   26.3570    1.2550    1.5280    1.3850 -999.0000 -999.0000 -999.0000  -96.8440
  2876.0000 -999.0000   12.0590  2876.0000 -999.0000  102.1770 -999.0000   30.3510    1.3070    1.6140    1.4440 -999.0000 -999.0000 -999.0000  -97.0110
  2876.5000 -999.0000   12.0610  2876.5000 -999.0000  101.0520 -999.0000   33.7680    1.3610    1.7050    1.5070 -999.0000 -999.0000 -999.0000  -96.8850
  2877.0000 -999.0000   12.0620  2877.0000 -999.0000   99.9260 -999.0000   31.3910    1.4170    1.8260    1.5720 -999.0000 -999.0000 -999.0000  -96.5430
  2877.5000 -999.0000   12.0640  2877.5000 -999.0000   99.0060 -999.0000   28.0730    1.4600    1.7950    1.6280 -999.0000 -999.0000 -999.0000  -96.2020
  2878.0000 -999.0000   12.0660  2878.0000 -999.0000   98.5350 -999.0000   24.7580    1.4260    1.7560    1.5710 -999.0000 -999.0000 -999.0000  -95.8610
  2878.5000 -999.0000   12.0680  2878.5000 -999.0000   98.2450 -999.0000   21.4390    1.4000    1.7180    1.5230 -999.0000 -999.0000 -999.0000  -95.5190
  2879.0000 -999.0000   12.0690  2879.0000 -999.0000   98.0190 -999.0000   19.2610    1.3740    1.6800    1.4760 -999.0000 -999.0000 -999.0000  -95.5370
  2879.5000 -999.0000   12.0710  2879.5000 -999.0000   97.7930 -999.0000   18.1120    1.3490    1.6440    1.4310 -999.0000 -999.0000 -999.0000  -95.8030
  2880.0000 -999.0000   12.0730  2880.0000 -999.0000   97.9240 -999.0000   17.1460    1.3240    1.6080    1.4010 -999.0000 -999.0000 -999.0000  -96.0670
  2880.5000 -999.0000   12.0650  2880.5000 -999.0000   98.1060 -999.0000   16.5300    1.3080    1.5850    1.4520 -999.0000 -999.0000 -999.0000  -96.3310
  2881.0000 -999.0000   12.0470  2881.0000 -999.0000   98.4400 -999.0000   17.3350    1.3580    1.6360    1.4930 -999.0000 -999.0000 -999.0000  -96.5950
  2881.5000 -999.0000   12.0290  2881.5000 -999.0000   98.9920 -999.0000   18.2360    1.3970    1.6750    1.5340 -999.0000 -999.0000 -999.0000  -96.8730
  2882.0000 -999.0000   12.0110  2882.0000 -999.0000   99.2600 -999.0000   19.3350    1.4370    1.7160    1.5760 -999.0000 -999.0000 -999.0000  -95.8400
  2882.5000 -999.0000   11.9930  2882.5000 -999.0000   98.9740 -999.0000   20.4400    1.4770    1.7570    1.6200 -999.0000 -999.0000 -999.0000  -94.6870
  2883.0000 -999.0000   11.9750  2883.0000 -999.0000   98.6900 -999.0000   21.4550    1.5190    1.8000    1.6640 -999.0000 -999.0000 -999.0000  -93.7340
  2883.5000 -999.0000   11.9700  2883.5000 -999.0000   98.4060 -999.0000   21.1590    1.5700    1.8510    1.7050 -999.0000 -999.0000 -999.0000  -93.4160
  2884.0000 -999.0000   11.9860  2884.0000 -999.0000   98.4910 -999.0000   20.8790    1.5320    1.8040    1.6490 -999.0000 -999.0000 -999.0000  -94.2710
  2884.5000 -999.0000   12.0020  2884.5000 -999.0000   98.9530 -999.0000   20.2990    1.4880    1.7490    1.6000 -999.0000 -999.0000 -999.0000  -96.3410
  2885.0000 -999.0000   12.0180  2885.0000 -999.0000   99.4160 -999.0000   19.2870    1.4440    1.6950    1.5530 -999.0000 -999.0000 -999.0000  -96.2340
  2885.5000 -999.0000   12.0340  2885.5000 -999.0000   99.8780 -999.0000   18.2780    1.4010    1.6430    1.5070 -999.0000 -999.0000 -999.0000  -97.1750
  2886.0000 -999.0000   12.0500  2886.0000 -999.0000  100.3410 -999.0000   18.4000    1.3460    1.5930    1.4630 -999.0000 -999.0000 -999.0000  -95.8710
  2886.5000 -999.0000   12.0440  2886.5000 -999.0000  100.8700 -999.0000   18.9000    1.2920    1.5440    1.4200 -999.0000 -999.0000 -999.0000  -96.5490
  2887.0000 -999.0000   12.0300  2887.0000 -999.0000  101.4330 -999.0000   18.4810    1.2410    1.4970    1.3780 -999.0000 -999.0000 -999.0000  -97.6550
  2887.5000 -999.0000   12.0170  2887.5000 -999.0000  101.9970 -999.0000   17.6150    1.1910    1.4510    1.3380 -999.0000 -999.0000 -999.0000  -97.0020
  2888.0000 -999.0000   12.0040  2888.0000 -999.0000  102.5600 -999.0000   16.7350    1.1430    1.4070    1.2980 -999.0000 -999.0000 -999.0000  -96.3500
  2888.5000 -999.0000   11.9910  2888.5000 -999.0000  102.7680 -999.0000   17.2900    1.0980    1.3630    1.2600 -999.0000 -999.0000 -999.0000  -95.6980
