~Version Information Section
 VERS.      2.0         :CWLS LOG ASCII STANDARD - VERSION 2.0
 WRAP.      NO          :SINGLE LINE PER DEPTH STEP
 CREA.      8/24/2011 12:51:22
~Well Information Section
#MNEM.UNIT                      VALUE/NAME                 DESCRIPTION
#----.----     ----------------------------------   --------------------
 STRT .FT           1140.0000                         :START DEPTH
 STOP .FT          13950.0000                         :STOP DEPTH
 STEP .FT              0.5000                         :STEP VALUE
 NULL .             -999.0000                         :NULL VALUE
 SRVC .          SCH                                  :Service Company/Logging company
 DATE .          08/24/2011                           :LAS file Creation Date
 WELL .          PENOBSCOT L-30                       :Well Name
 COMP .          SHELL CANADA RESOURCES LIMITED       :Company
 FLD  .          Wildcat                              :Field
 STATE.          Nova Scotia Shelf                    :State
 COUNT.          Canada                               :Country
 LOC  .          44� 09' 43.558"N LAT|60� 04' 0   :Location
 LATI .          0                                    :Latitude/Northing
 LONG .          0                                    :Longitude/Easting
 PDAT .          RT                                   :Permanent Datum
 EPDAT.          0.0000                               :Elevation of Permanent Datum
 LGMEA.          RT                                   :Log Measured from
 APDAT.          98.0000                              :Elevation Above Permanent Datum
 KB   .          99.0000                              :KB Elevation
 GL   .          -451.0000                            :GL Elevation
 RWS  .          0                                    :Def_Rw
 WST  .          0                                    :Def_Rwt
 ERT  .          0.0000                               :RT Elevation
 CNTY .          NOVA SCOTIA SHELF                    :County
~Curve Information Section
#MNEM  .UNIT         CURVE DESCRIPTION
#----  .----         -------------------------
 DEPTH .FT           :1 Depth
 CALD  .IN           :2 Caliper    Caliper - Density
 CALS  .IN           :3 Caliper    Caliper - Sonic
 DEPT  .FT           :4 Depth
 DRHO  .G/CC         :5 Drho       Delta Rho
 DT    .US/F         :6 Sonic      Delta-T
 GRD   .GAPI         :7 GammaRay   Gamma Ray - Density
 GRS   .GAPI         :8 GammaRay   Gamma Ray - Sonic
 ILD   .OHMM         :9 DeepRes    Deep Induction Standard Processed Resistivity
 ILM   .OHMM         :10 MedRes     Medium Induction Standard Processed Resistivity
 LL8   .OHMM         :11 ShalRes    Latero-Log 8
 NPHILS.V/V          :12 Neutron    Neutron Porosity - Ls Mtx
 NPHISS.V/V          :13 Neutron    Neutron Porosity - Ss Mtx
 RHOB  .G/CC         :14 Density    Bulk Density
 SP    .MV           :15 SP         Spontaneous Potential
~Parameter Information Section
#MNEM.UNIT                      VALUE                       DESCRIPTION
#----.----     ----------------------------------   --------------------
~A  DEPTH     CALD      CALS      DEPT      DRHO       DT        GRD       GRS       ILD       ILM       LL8     NPHILS    NPHISS     RHOB       SP    
# ...
 13065.0000   10.4050   10.5680 13065.0000    0.0110   50.6310   20.7980   24.1620 1553.5420  338.7090 1429.0530    0.0100 -999.0000    2.7170 -109.8550
 13065.5000   10.4070   10.5660 13065.5000    0.0290   50.4470   20.9100   24.9300 1545.3890  267.9740 1431.5490    0.0080 -999.0000    2.7510 -109.9870
 13066.0000   10.4090   10.5650 13066.0000    0.0470   50.1540   21.0240   25.6990 1556.5050  317.7120  847.3170    0.0050 -999.0000    2.7720 -110.6650
 13066.5000   10.4110   10.5640 13066.5000    0.0480   50.4350   21.1340   26.4670 1570.2061  466.8600  692.1570    0.0030 -999.0000    2.7810 -111.5250
 13067.0000   10.4130   10.5620 13067.0000    0.0160   50.0720   20.7210   27.2580 1584.0291  564.1270  763.1180    0.0030 -999.0000    2.7330 -112.3850
 13067.5000   10.4020   10.5610 13067.5000    0.0170   50.1520   20.2920   25.7760 1595.5601  620.3060 1531.3470    0.0040 -999.0000    2.7560 -113.2460
 13068.0000   10.3870   10.5600 13068.0000    0.0180   50.5160   19.8630   24.1340 1397.9860  397.9560 1196.9390    0.0050 -999.0000    2.7720 -113.7450
 13068.5000   10.3720   10.5560 13068.5000    0.0230   50.8020   19.4290   24.5000 1435.9470  274.6610  833.0500    0.0060 -999.0000    2.7760 -113.7440
 13069.0000   10.3580   10.5530 13069.0000    0.0300   50.8940   19.7590   25.9580 1517.1801  231.4510  579.7890    0.0060 -999.0000    2.7790 -113.7440
 13069.5000   10.3430   10.5590 13069.5000    0.0340   50.4900   21.0190   27.4150 1573.8530  247.5450  447.8980    0.0060 -999.0000    2.7760 -113.7420
 13070.0000   10.3280   10.5640 13070.0000    0.0310   50.0870   18.9210   28.8720 1559.3060  273.9840  430.5590    0.0060 -999.0000    2.7700 -114.0530
 13070.5000   10.3520   10.5700 13070.5000    0.0260   49.6850   18.5060   30.3300 1548.4270  267.3220  677.4330    0.0050 -999.0000    2.7550 -114.6980
 13071.0000   10.3930   10.5760 13071.0000    0.0180   49.7710   18.7680   31.1990 1537.6370  250.1240  980.5990    0.0040 -999.0000    2.7390 -115.3420
 13071.5000   10.4340   10.5810 13071.5000    0.0110   50.4510   19.0270   29.8010 1526.8950  279.8100 1036.8060    0.0040 -999.0000    2.7200 -115.9860
 13072.0000   10.4750   10.5870 13072.0000    0.0220   50.9740   18.4340   27.3780 1517.4320  298.4910 1496.7970    0.0030 -999.0000    2.7260 -116.6440
 13072.5000   10.5160   10.5930 13072.5000    0.0190   50.7460   16.2790   24.9740 1553.6560  307.8540 1437.3149    0.0030 -999.0000    2.7320 -116.7660
 13073.0000   10.5240   10.5980 13073.0000    0.0150   51.1280   15.5960   22.5690 1587.0800  368.3350 1328.9380    0.0020 -999.0000    2.7080 -116.8140
 13073.5000   10.5080   10.6040 13073.5000    0.0280   51.0150   16.5310   20.3320 1639.7679  526.3180 1224.4690    0.0020 -999.0000    2.7190 -116.8620
 13074.0000   10.4920   10.6100 13074.0000    0.0640   50.5770   17.0350   19.2460 1626.6010  503.8210  838.3560    0.0030 -999.0000    2.7460 -116.9110
 13074.5000   10.4760   10.6150 13074.5000    0.0870   50.4410   15.9800   19.4620 1598.3370  430.9170 1496.7970    0.0030 -999.0000    2.7860 -116.9600
 13075.0000   10.4600   10.6210 13075.0000    0.0580   50.7010   14.9340   19.6700 1570.5649  292.5880 1385.3170    0.0030 -999.0000    2.7590 -117.0090
 13075.5000   10.4750   10.6260 13075.5000    0.0440   50.9220   14.4470   19.4170 1538.4091  258.4700 1393.6541    0.0030 -999.0000    2.7520 -116.8090
 13076.0000   10.5160   10.6320 13076.0000    0.0450   51.0310   14.2620   18.1430 1556.7620  237.8770 1414.1899    0.0020 -999.0000    2.7450 -116.5270
 13076.5000   10.5560   10.6380 13076.5000    0.0530   51.1390   14.0780   16.8630 1579.6090  256.0170 1417.0229    0.0020 -999.0000    2.7330 -116.2450
 13077.0000   10.5960   10.6400 13077.0000    0.0520   50.8250   13.8940   15.5800 1602.7750  273.2500  482.6000    0.0020 -999.0000    2.7500 -115.9610
 13077.5000   10.6360   10.6420 13077.5000    0.0430   50.3970   13.7100   15.1490 1617.4950  292.1060  805.8890    0.0010 -999.0000    2.7250 -116.1950
 13078.0000   10.6640   10.6440 13078.0000    0.0520   49.9690   13.5280   15.7570 1606.0120  403.9080 1538.3521    0.0010 -999.0000    2.7600 -116.8480
 13078.5000   10.6890   10.6450 13078.5000    0.0580   50.1050   13.0990   16.3730 1597.6340  342.9210 1410.6470    0.0010 -999.0000    2.7440 -115.9940
 13079.0000   10.7140   10.6470 13079.0000    0.0540   50.4550   11.3180   17.4310 1589.3000  261.3980 1419.8040    0.0000 -999.0000    2.7610 -115.1510
 13079.5000   10.7390   10.6490 13079.5000    0.0520   50.8060    9.5370   18.5110 1581.0090  207.4430 1445.1520    0.0000 -999.0000    2.7510 -114.6450
 13080.0000   10.7650   10.6510 13080.0000    0.0610   50.9360   10.3240   19.5970 1572.7610  181.7210 1462.5710    0.0000 -999.0000    2.7680 -114.6640
 13080.5000   10.7900   10.6530 13080.5000    0.0690   50.9540   11.7860   19.4900 1563.6660  210.2210  603.2910    0.0010 -999.0000    2.7840 -114.6830
 13081.0000   10.8150   10.6550 13081.0000    0.0780   50.2950   13.6150   17.9710 1552.1190  262.5710  406.9610    0.0020 -999.0000    2.7650 -114.7020
 13081.5000   10.8410   10.6570 13081.5000    0.0550   49.8540   15.4320   16.7180 1540.6570  297.1700  345.8510    0.0030 -999.0000    2.7290 -114.7210
 13082.0000   10.8400   10.6580 13082.0000    0.0360   50.3060   16.9890   17.1940 1529.2800  311.2890 1449.7321    0.0040 -999.0000    2.7060 -114.7390
 13082.5000   10.8380   10.6600 13082.5000    0.0610   50.1400   14.9350   17.3940 1517.9860  242.8610 1052.3770    0.0040 -999.0000    2.7330 -114.7580
 13083.0000   10.8360   10.6620 13083.0000    0.0550   49.8380   12.9170   16.2350 1510.5909  191.0770  454.4700    0.0040 -999.0000    2.7740 -114.7790
 13083.5000   10.8340   10.6640 13083.5000    0.0440   49.5350   12.5580   15.0920 1544.8770  202.2730  542.9890    0.0030 -999.0000    2.7360 -114.5440
 13084.0000   10.8320   10.6660 13084.0000    0.0370   49.5560   12.8830   15.1900 1571.1210  229.3480  907.2130    0.0020 -999.0000    2.7640 -114.0680
 13084.5000   10.8560   10.6680 13084.5000    0.0380   49.9570   13.1800   15.8530 1595.5020  210.6680 1522.6021    0.0010 -999.0000    2.7480 -113.5930
 13085.0000   10.8890   10.6830 13085.0000    0.0280   50.3560   12.6690   16.5170 1585.8910  187.8740 1102.3810    0.0000 -999.0000    2.7500 -113.1180
 13085.5000   10.9220   10.7040 13085.5000    0.0200   50.4870   12.1970   17.1790 1577.0500  173.3190  745.7500    0.0000 -999.0000    2.7290 -112.6420
 13086.0000   10.9550   10.7240 13086.0000    0.0240   50.2130   11.7470   16.9000 1567.8530  157.7460  439.8060    0.0000 -999.0000    2.7370 -112.3340
 13086.5000   10.9870   10.7450 13086.5000    0.0470   50.0560   12.5960   16.0740 1465.2760  168.2180  346.9040    0.0000 -999.0000    2.7530 -112.1980
 13087.0000   11.0200   10.7660 13087.0000    0.0590   50.3080   13.4660   15.2480 1352.0950  181.1140  286.8270    0.0000 -999.0000    2.7380 -112.0600
 13087.5000   11.0530   10.7870 13087.5000    0.0500   50.2260   13.8070   15.1520 1196.8420  184.8840  457.1520    0.0010 -999.0000    2.7190 -111.9680
 13088.0000   11.0860   10.8070 13088.0000    0.0500   49.7280   12.5740   16.2850 1272.2130  188.7270 1573.8621    0.0010 -999.0000    2.7420 -112.0180
 13088.5000   11.1190   10.8280 13088.5000    0.0460   49.7030   11.7200   17.4190 1443.7760  192.6530 1424.2629    0.0010 -999.0000    2.7320 -112.0680
 13089.0000   11.1520   10.8490 13089.0000    0.0620   50.0400   12.5720   18.5530 1654.8950  197.6250  737.7820    0.0010 -999.0000    2.7490 -112.1170
 13089.5000   11.1850   10.8700 13089.5000    0.0560   49.6070   13.4160   19.6870 1576.7620  246.8650  912.8690    0.0010 -999.0000    2.7610 -112.1670
 13090.0000   11.2080   10.8860 13090.0000    0.0460   49.1740   14.2590   20.8190 1145.6030  382.3810 1436.5590    0.0010 -999.0000    2.7350 -112.2170
 13090.5000   11.2220   10.8990 13090.5000    0.0460   49.9600   15.1030   22.5180  595.3120  274.8220  727.7490    0.0010 -999.0000    2.7230 -112.1460
 13091.0000   11.2370   10.9130 13091.0000    0.0500   51.8700   16.3260   24.9480  321.8570  152.0220 1003.6500    0.0020 -999.0000    2.7530 -111.6960
