~Version Information Section
 VERS.      2.0         :CWLS LOG ASCII STANDARD - VERSION 2.0
 WRAP.      NO          :SINGLE LINE PER DEPTH STEP
 CREA.      8/24/2011 12:51:22
~Well Information Section
#MNEM.UNIT                      VALUE/NAME                 DESCRIPTION
#----.----     ----------------------------------   --------------------
 STRT .FT           1140.0000                         :START DEPTH
 STOP .FT          13950.0000                         :STOP DEPTH
 STEP .FT              0.5000                         :STEP VALUE
 NULL .             -999.0000                         :NULL VALUE
 SRVC .          SCH                                  :Service Company/Logging company
 DATE .          08/24/2011                           :LAS file Creation Date
 WELL .          PENOBSCOT L-30                       :Well Name
 COMP .          SHELL CANADA RESOURCES LIMITED       :Company
 FLD  .          Wildcat                              :Field
 STATE.          Nova Scotia Shelf                    :State
 COUNT.          Canada                               :Country
 LOC  .          44� 09' 43.558"N LAT|60� 04' 0   :Location
 LATI .          0                                    :Latitude/Northing
 LONG .          0                                    :Longitude/Easting
 PDAT .          RT                                   :Permanent Datum
 EPDAT.          0.0000                               :Elevation of Permanent Datum
 LGMEA.          RT                                   :Log Measured from
 APDAT.          98.0000                              :Elevation Above Permanent Datum
 KB   .          99.0000                              :KB Elevation
 GL   .          -451.0000                            :GL Elevation
 RWS  .          0                                    :Def_Rw
 WST  .          0                                    :Def_Rwt
 ERT  .          0.0000                               :RT Elevation
 CNTY .          NOVA SCOTIA SHELF                    :County
~Curve Information Section
#MNEM  .UNIT         CURVE DESCRIPTION
#----  .----         -------------------------
 DEPTH .FT           :1 Depth
 CALD  .IN           :2 Caliper    Caliper - Density
 CALS  .IN           :3 Caliper    Caliper - Sonic
 DEPT  .FT           :4 Depth
 DRHO  .G/CC         :5 Drho       Delta Rho
 DT    .US/F         :6 Sonic      Delta-T
 GRD   .GAPI         :7 GammaRay   Gamma Ray - Density
 GRS   .GAPI         :8 GammaRay   Gamma Ray - Sonic
 ILD   .OHMM         :9 DeepRes    Deep Induction Standard Processed Resistivity
 ILM   .OHMM         :10 MedRes     Medium Induction Standard Processed Resistivity
 LL8   .OHMM         :11 ShalRes    Latero-Log 8
 NPHILS.V/V          :12 Neutron    Neutron Porosity - Ls Mtx
 NPHISS.V/V          :13 Neutron    Neutron Porosity - Ss Mtx
 RHOB  .G/CC         :14 Density    Bulk Density
 SP    .MV           :15 SP         Spontaneous Potential
~Parameter Information Section
#MNEM.UNIT                      VALUE                       DESCRIPTION
#----.----     ----------------------------------   --------------------
~A  DEPTH     CALD      CALS      DEPT      DRHO       DT        GRD       GRS       ILD       ILM       LL8     NPHILS    NPHISS     RHOB       SP    
# ...
  3710.5000   13.1260   11.5060  3710.5000    0.0590  118.9720   73.4030   68.2420    0.9610    1.1100    2.1060 -999.0000    0.4320    2.2180 -123.0310
  3711.0000   13.1470   11.5090  3711.0000    0.0620  117.9610   75.2120   68.9260    0.8920    1.0860    1.9690 -999.0000    0.4370    2.2460 -124.4010
  3711.5000   13.1640   11.5130  3711.5000    0.0540  114.4740   77.0650   70.9530    0.9110    1.0650    1.9070 -999.0000    0.4290    2.2740 -124.7100
  3712.0000   13.0950   11.5160  3712.0000    0.0470  110.7350   78.7710   72.9820    0.9360    1.1390    1.8510 -999.0000    0.4180    2.2970 -123.3620
  3712.5000   13.0960   11.5190  3712.5000    0.0460  108.5450   77.5670   74.5350    0.9650    1.2110    2.0300 -999.0000    0.4060    2.3160 -120.9990
  3713.0000   13.1190   11.5220  3713.0000    0.0570  107.0410   76.1490   73.0630    1.0180    1.2870    2.2450 -999.0000    0.3920    2.3320 -117.2400
  3713.5000   13.1100   11.5260  3713.5000    0.0370  107.5270   73.9950   71.6370    1.0730    1.3680    2.4540 -999.0000    0.4010    2.3100 -113.9620
  3714.0000   13.0770   11.5290  3714.0000    0.0450  108.8390   70.4930   70.2030    1.1320    1.4930    2.5890 -999.0000    0.4130    2.2820 -112.6220
  3714.5000   13.0450   11.5320  3714.5000    0.0490  110.7240   69.0410   69.7480    1.1890    1.4700    2.6780 -999.0000    0.4250    2.2550 -112.3660
  3715.0000   13.0130   11.5350  3715.0000    0.0480  112.6090   69.1620   70.3640    1.1660    1.4280    2.5780 -999.0000    0.4180    2.2270 -112.7650
  3715.5000   12.9800   11.5390  3715.5000    0.0560  113.7360   68.5670   70.0400    1.1380    1.3620    2.4760 -999.0000    0.4140    2.2190 -114.9050
  3716.0000   13.1410   11.5420  3716.0000    0.0460  113.4750   68.6500   68.4940    1.0920    1.2730    2.1070 -999.0000    0.4150    2.2140 -118.0550
  3716.5000   13.3770   11.5450  3716.5000    0.0600  112.9090   69.9230   65.9010    1.0490    1.1980    1.8850 -999.0000    0.4130    2.2350 -121.2070
  3717.0000   13.7190   11.5480  3717.0000    0.0670  112.6830   71.2210   63.7540    1.0070    1.1810    1.9990 -999.0000    0.4070    2.2670 -123.4810
  3717.5000   13.8410   11.5520  3717.5000    0.0610  112.8200   70.5310   65.1550    0.9680    1.1620    2.0920 -999.0000    0.4010    2.2600 -123.0880
  3718.0000   13.8120   11.5550  3718.0000    0.0560  112.7270   69.6280   66.5160    0.9840    1.1930    2.1880 -999.0000    0.4060    2.2520 -121.5080
  3718.5000   13.7900   11.5540  3718.5000    0.0540  112.1160   68.7240   67.4310    1.0000    1.2300    2.2830 -999.0000    0.4100    2.2720 -119.1610
  3719.0000   13.8120   11.5530  3719.0000    0.0560  111.5030   67.7740   65.3460    1.0170    1.2690    2.1800 -999.0000    0.4150    2.2750 -116.8130
  3719.5000   13.8320   11.5510  3719.5000    0.0650  111.1620   66.8060   63.2760    1.0270    1.3020    2.0930 -999.0000    0.4190    2.2710 -114.9530
  3720.0000   14.1180   11.5500  3720.0000    0.0860  113.4960   66.3490   62.8770    0.9260    1.2590    2.2000 -999.0000    0.4230    2.2730 -113.9000
  3720.5000   14.8980   11.5490  3720.5000    0.0700  118.6510   67.2970   62.7000    0.8590    1.1670    2.3560 -999.0000    0.4280    2.2550 -113.4060
  3721.0000   14.6290   11.5470  3721.0000    0.0460  123.7930   69.9030   61.9640    0.7960    1.0470    2.1360 -999.0000    0.4240    2.2260 -113.7700
  3721.5000   14.1970   11.5460  3721.5000    0.0540  125.7810   73.2690   60.3360    0.7510    0.9400    1.7560 -999.0000    0.4200    2.2720 -116.0500
  3722.0000   14.0280   11.5440  3722.0000    0.0720  126.5190   76.6360   58.6720    0.7320    0.8970    1.3200 -999.0000    0.4160    2.3100 -119.4460
  3722.5000   13.9910   11.5430  3722.5000    0.0380  123.1710   80.0040   60.0960    0.7150    0.8760    1.4210 -999.0000    0.4180    2.2790 -118.3110
  3723.0000   13.9540   11.5420  3723.0000    0.0450  119.7630   83.3700   64.6120    0.7030    0.9210    1.6290 -999.0000    0.4290    2.2980 -116.3970
  3723.5000   13.9170   11.5400  3723.5000    0.0540  120.3310   83.2210   68.6960    0.7530    0.9730    1.8010 -999.0000    0.4400    2.3200 -109.0270
  3724.0000   13.8870   11.5390  3724.0000    0.0600  120.1510   81.1600   71.1380    0.7970    1.0550    1.7420 -999.0000    0.4480    2.3240 -101.6570
  3724.5000   13.8640   11.5370  3724.5000    0.0570  117.4760   77.0830   71.2300    0.8740    1.1440    1.6970 -999.0000    0.4350    2.3100  -97.2390
  3725.0000   13.8420   11.5360  3725.0000    0.0440  116.1050   75.2230   72.1190    0.9570    1.2410    1.7360 -999.0000    0.4340    2.2770  -96.5550
  3725.5000   13.7890   11.5370  3725.5000    0.0500  114.7750   76.7430   73.4690    1.0490    1.3460    1.7770 -999.0000    0.4360    2.2720 -100.3090
  3726.0000   13.7280   11.5390  3726.0000    0.0630  113.1080   77.9840   72.9040    1.1490    1.4070    2.1390 -999.0000    0.4370    2.2990 -103.7650
  3726.5000   13.6670   11.5410  3726.5000    0.0590  112.1470   77.0460   72.2750    1.1990    1.4530    2.2810 -999.0000    0.4350    2.3150 -105.3600
  3727.0000   13.6070   11.5430  3727.0000    0.0500  113.4510   76.1370   71.1400    1.2140    1.4410    2.2920 -999.0000    0.4290    2.3100 -104.4180
  3727.5000   13.6020   11.5450  3727.5000    0.0410  116.6190   74.9410   69.5980    1.2310    1.4190    2.3040 -999.0000    0.4400    2.3020 -101.0970
  3728.0000   13.6990   11.5480  3728.0000    0.0240  120.8330   72.2040   70.7190    1.2490    1.3970    2.1630 -999.0000    0.4640    2.2950  -98.3390
  3728.5000   13.5770   11.5500  3728.5000    0.0100  125.5630   69.0680   72.1340    1.2690    1.3820    2.0250 -999.0000    0.4900    2.2830  -96.6190
  3729.0000   13.4280   11.5520  3729.0000    0.0190  127.6250   65.7450   73.5570    1.2900    1.4410    1.8950 -999.0000    0.5150    2.2710  -95.0110
  3729.5000   13.2800   11.5540  3729.5000    0.0260  129.1510   62.4230   72.4080    1.3210    1.4880    1.8090 -999.0000    0.5410    2.2750  -94.7880
  3730.0000   13.1310   11.5490  3730.0000    0.0250  128.5440   59.0940   69.0430    1.3530    1.5380    1.8130 -999.0000    0.5560    2.2860  -94.5480
  3730.5000   12.9890   11.5380  3730.5000    0.0200  126.8470   57.4790   62.3620    1.3860    1.5890    1.8140 -999.0000    0.5640    2.3150  -96.4200
  3731.0000   12.9520   11.5260  3731.0000    0.0270  124.4940   56.3920   57.5400    1.4190    1.6420    2.1590 -999.0000    0.5350    2.3630 -100.6380
  3731.5000   12.9160   11.5140  3731.5000    0.0130  118.0320   54.5130   58.6880    1.4530    1.6960    2.6170 -999.0000    0.5050    2.3860 -105.4660
  3732.0000   12.8810   11.5070  3732.0000    0.0010  105.9400   52.6400   59.3040    1.5000    1.7530    2.6700 -999.0000    0.4750    2.4030 -109.6400
  3732.5000   12.9030   11.5140  3732.5000    0.0640   99.9580   52.7990   58.2200    1.4780    1.8420    2.8250 -999.0000    0.4450    2.4190 -113.0240
  3733.0000   12.9510   11.5220  3733.0000    0.0520  100.6940   54.4100   55.3070    1.4440    1.7930    3.6000 -999.0000    0.4210    2.3760 -115.5610
  3733.5000   13.0000   11.5300  3733.5000    0.0290  104.4130   53.4040   53.5620    1.4110    1.6940    4.3820 -999.0000    0.4460    2.3440 -116.6740
  3734.0000   13.0480   11.5380  3734.0000    0.0050  108.3960   49.9440   52.3830    1.3820    1.6000    3.0280 -999.0000    0.4720    2.4260 -118.2100
  3734.5000   13.0970   11.5450  3734.5000   -0.0120   98.6750   50.4400   51.2140    1.4110    1.5210    2.2210 -999.0000    0.4360    2.5080 -120.0420
  3735.0000   12.9080   11.5240  3735.0000    0.0170   90.0630   52.3540   48.7890    1.4460    1.5920    2.0280 -999.0000    0.3910    2.5730 -121.8760
  3735.5000   12.6600   11.4970  3735.5000    0.0330   86.7140   56.9740   45.1300    1.3910    1.6590    2.3450 -999.0000    0.3560    2.4930 -123.3540
  3736.0000   12.7240   11.4700  3736.0000    0.0100   88.0190   62.0330   42.1500    1.3180    1.7120    5.9260 -999.0000    0.3710    2.4040 -122.1910
  3736.5000   12.7840   11.4430  3736.5000   -0.0050   94.5280   66.5710   44.2830    1.2790    1.6550    4.7700 -999.0000    0.4070    2.3620 -121.8920
