~Version Information Section
 VERS.      2.0         :CWLS LOG ASCII STANDARD - VERSION 2.0
 WRAP.      NO          :SINGLE LINE PER DEPTH STEP
 CREA.      8/24/2011 12:51:22
~Well Information Section
#MNEM.UNIT                      VALUE/NAME                 DESCRIPTION
#----.----     ----------------------------------   --------------------
 STRT .FT           1140.0000                         :START DEPTH
 STOP .FT          13950.0000                         :STOP DEPTH
 STEP .FT              0.5000                         :STEP VALUE
 NULL .             -999.0000                         :NULL VALUE
 SRVC .          SCH                                  :Service Company/Logging company
 DATE .          08/24/2011                           :LAS file Creation Date
 WELL .          PENOBSCOT L-30                       :Well Name
 COMP .          SHELL CANADA RESOURCES LIMITED       :Company
 FLD  .          Wildcat                              :Field
 STATE.          Nova Scotia Shelf                    :State
 COUNT.          Canada                               :Country
 LOC  .          44� 09' 43.558"N LAT|60� 04' 0   :Location
 LATI .          0                                    :Latitude/Northing
 LONG .          0                                    :Longitude/Easting
 PDAT .          RT                                   :Permanent Datum
 EPDAT.          0.0000                               :Elevation of Permanent Datum
 LGMEA.          RT                                   :Log Measured from
 APDAT.          98.0000                              :Elevation Above Permanent Datum
 KB   .          99.0000                              :KB Elevation
 GL   .          -451.0000                            :GL Elevation
 RWS  .          0                                    :Def_Rw
 WST  .          0                                    :Def_Rwt
 ERT  .          0.0000                               :RT Elevation
 CNTY .          NOVA SCOTIA SHELF                    :County
~Curve Information Section
#MNEM  .UNIT         CURVE DESCRIPTION
#----  .----         -------------------------
 DEPTH .FT           :1 Depth
 CALD  .IN           :2 Caliper    Caliper - Density
 CALS  .IN           :3 Caliper    Caliper - Sonic
 DEPT  .FT           :4 Depth
 DRHO  .G/CC         :5 Drho       Delta Rho
 DT    .US/F         :6 Sonic      Delta-T
 GRD   .GAPI         :7 GammaRay   Gamma Ray - Density
 GRS   .GAPI         :8 GammaRay   Gamma Ray - Sonic
 ILD   .OHMM         :9 DeepRes    Deep Induction Standard Processed Resistivity
 ILM   .OHMM         :10 MedRes     Medium Induction Standard Processed Resistivity
 LL8   .OHMM         :11 ShalRes    Latero-Log 8
 NPHILS.V/V          :12 Neutron    Neutron Porosity - Ls Mtx
 NPHISS.V/V          :13 Neutron    Neutron Porosity - Ss Mtx
 RHOB  .G/CC         :14 Density    Bulk Density
 SP    .MV           :15 SP         Spontaneous Potential
~Parameter Information Section
#MNEM.UNIT                      VALUE                       DESCRIPTION
#----.----     ----------------------------------   --------------------
~A  DEPTH     CALD      CALS      DEPT      DRHO       DT        GRD       GRS       ILD       ILM       LL8     NPHILS    NPHISS     RHOB       SP    
# ...
  7102.5000   11.0570    9.2290  7102.5000    0.0460   92.5220   69.9570   72.4990    1.9600    2.1680    2.3310 -999.0000    0.4180    2.3410  -81.5660
  7103.0000   11.6210    9.2290  7103.0000    0.1080   87.6320   70.8450   73.0530    1.9780    2.1830    2.2560 -999.0000    0.3660    2.3820  -82.9960
  7103.5000   12.0450    9.2280  7103.5000    0.1670   84.2810   75.2820   76.6550    1.9970    2.1980    2.2140 -999.0000    0.3340    2.3260  -84.4550
  7104.0000   12.3930    9.2270  7104.0000    0.1670   91.4820   77.9110   80.2570    2.0160    2.2130    3.5090 -999.0000    0.3910    2.2690  -85.9250
  7104.5000   12.3220    9.2240  7104.5000    0.1960   96.6070   78.4450   82.1930    2.0350    2.2280    5.9360 -999.0000    0.4320    2.2710  -85.6360
  7105.0000   12.6580    9.2210  7105.0000    0.1560  100.4340   78.7110   80.6370    2.0540    2.2430    3.4540 -999.0000    0.4730    2.1790  -85.0240
  7105.5000   13.4340    9.2180  7105.5000    0.1700  103.4260   80.5990   79.0290    2.0740    2.2550    2.6080 -999.0000    0.4720    2.1920  -84.4130
  7106.0000   13.3900    9.2150  7106.0000    0.1620  102.4440   81.5860   81.3370    2.0860    2.2190    2.2650 -999.0000    0.4700    2.2220  -83.9260
  7106.5000   13.2680    9.2110  7106.5000    0.1770  100.2720   82.8840   83.8740    2.0310    2.1900    2.3430 -999.0000    0.4810    2.2590  -84.0220
  7107.0000   13.1470    9.2080  7107.0000    0.1640   99.0060   85.2400   86.4670    1.9920    2.1620    2.4370 -999.0000    0.4730    2.2970  -83.4670
  7107.5000   13.1850    9.2050  7107.5000    0.1910   97.8680   86.1620   85.3640    1.9530    2.1350    2.5340 -999.0000    0.4640    2.3420  -82.2570
  7108.0000   13.5110    9.2020  7108.0000    0.1790   97.0610   84.5170   83.7450    1.9160    2.1070    2.6340 -999.0000    0.4900    2.3240  -81.1170
  7108.5000   13.5790    9.1990  7108.5000    0.1540   99.2640   82.8660   82.1310    1.8610    2.0860    2.7690 -999.0000    0.5060    2.3200  -82.1350
  7109.0000   13.4580    9.1980  7109.0000    0.1510  100.4340   81.2160   80.5170    1.8660    2.1040    2.7130 -999.0000    0.5190    2.3160  -83.1620
  7109.5000   13.3380    9.2030  7109.5000    0.1500   95.9230   79.5730   78.9040    1.8750    2.1190    2.6380 -999.0000    0.5140    2.2880  -83.3650
  7110.0000   13.2160    9.2080  7110.0000    0.1310   94.7630   76.3810   77.2880    1.8850    2.1330    2.5640 -999.0000    0.5090    2.2440  -82.9020
  7110.5000   13.4620    9.2130  7110.5000    0.1170   93.8790   77.1970   75.6860    1.8940    2.1480    2.5040 -999.0000    0.5050    2.2080  -82.4430
  7111.0000   13.3660    9.2180  7111.0000    0.1310   96.8310   78.8580   76.7160    1.9030    2.1630    2.6770 -999.0000    0.5000    2.2060  -81.9830
  7111.5000   13.6910    9.2220  7111.5000    0.1580   98.5050   80.5140   78.7860    1.9130    2.1780    2.8720 -999.0000    0.5020    2.2260  -81.5230
  7112.0000   13.4290    9.2270  7112.0000    0.1480   94.8730   82.1810   80.6930    1.9220    2.1930    2.7830 -999.0000    0.5030    2.2510  -81.0630
  7112.5000   13.3830    9.2320  7112.5000    0.1280   95.6380   82.0710   78.1460    1.9320    2.2090    2.6730 -999.0000    0.5040    2.2580  -80.6040
  7113.0000   13.5280    9.2370  7113.0000    0.1400   97.2630   80.1860   75.6250    1.9390    2.2240    2.5680 -999.0000    0.5060    2.2750  -79.9790
  7113.5000   13.6720    9.2420  7113.5000    0.1310   98.2490   80.1640   74.4260    1.8870    2.1760    2.4660 -999.0000    0.5090    2.2250  -79.1340
  7114.0000   13.7670    9.2460  7114.0000    0.1470   96.4220   80.1860   75.3850    1.8440    2.1300    2.3690 -999.0000    0.5120    2.1810  -78.2900
  7114.5000   13.5680    9.2370  7114.5000    0.1540  100.7510   78.6460   76.3430    1.8030    2.0850    2.3070 -999.0000    0.5150    2.1380  -77.4460
  7115.0000   13.2480    9.2290  7115.0000    0.1470  104.0230   77.7950   77.3020    1.7620    2.0410    2.3390 -999.0000    0.5280    2.1020  -77.0330
  7115.5000   12.5920    9.2200  7115.5000    0.1760  101.3380   78.2720   77.6470    1.7220    1.9970    2.3630 -999.0000    0.5450    2.1150  -77.3330
  7116.0000   13.1290    9.2120  7116.0000    0.1560  102.2970   77.0240   75.4300    1.6830    1.9550    2.3880 -999.0000    0.5630    2.0870  -77.6350
  7116.5000   13.6470    9.2030  7116.5000    0.1140  103.1390   75.7780   73.2250    1.6450    1.9150    2.4130 -999.0000    0.5750    2.0390  -77.9480
  7117.0000   13.8610    9.1950  7117.0000    0.0700  103.3900   76.3120   73.2480    1.6080    1.8760    2.4480 -999.0000    0.5450    2.0490  -77.1280
  7117.5000   13.6380    9.1860  7117.5000    0.1120  106.0380   76.8620   74.6630    1.5780    1.8380    2.3730 -999.0000    0.5580    2.0650  -76.2110
  7118.0000   13.4550    9.1770  7118.0000    0.1070  108.0950   75.3160   76.0750    1.5580    1.8000    2.2510 -999.0000    0.5390    1.9940  -75.4890
  7118.5000   13.3690    9.1690  7118.5000    0.1140  109.3910   73.6560   77.4860    1.5380    1.7640    2.1050 -999.0000    0.5170    1.9950  -76.0270
  7119.0000   13.3940    9.1710  7119.0000    0.1270  108.3630   72.3970   78.8980    1.5190    1.7280    2.1540 -999.0000    0.5180    2.0970  -76.5490
  7119.5000   13.4170    9.1800  7119.5000    0.1190  106.6070   73.1620   80.3190    1.4990    1.6920    2.2240 -999.0000    0.5230    2.1220  -76.8790
  7120.0000   13.1730    9.1890  7120.0000    0.1080  104.8510   75.2690   80.4240    1.4800    1.6530    2.3070 -999.0000    0.5280    2.1480  -77.0660
  7120.5000   13.4500    9.1980  7120.5000    0.1530  103.0950   77.3180   79.0250    1.4620    1.6820    2.2580 -999.0000    0.5300    2.2200  -77.4530
  7121.0000   12.5310    9.2060  7121.0000    0.2000  101.3390   78.0980   77.6340    1.4480    1.7160    2.2020 -999.0000    0.5060    2.2900  -78.6600
  7121.5000   12.2400    9.2150  7121.5000    0.1910  100.1840   78.8590   76.2530    1.5270    1.7520    2.1480 -999.0000    0.4810    2.3280  -79.8640
  7122.0000   12.5320    9.2240  7122.0000    0.1780   99.3820   79.4600   76.7850    1.5920    1.7880    2.1150 -999.0000    0.4690    2.3100  -81.0680
  7122.5000   11.7850    9.2320  7122.5000    0.1650   96.2500   77.6260   78.1640    1.6600    1.8520    2.4490 -999.0000    0.4580    2.3280  -81.8960
  7123.0000   11.0750    9.2410  7123.0000    0.1070   93.9470   75.8040   79.5450    1.7310    1.9380    2.7190 -999.0000    0.4450    2.3630  -81.5480
  7123.5000   11.3710    9.2260  7123.5000    0.0350   95.1220   73.9830   79.9080    1.8050    2.0270    2.7380 -999.0000    0.4290    2.3390  -81.2050
  7124.0000   11.0250    9.2100  7124.0000    0.0440   92.1300   71.1860   76.7230    1.8820    2.1210    2.7580 -999.0000    0.4130    2.4140  -81.9590
  7124.5000   10.6790    9.1950  7124.5000    0.0630   89.3230   67.7810   71.7250    1.9620    2.2190    2.8160 -999.0000    0.3940    2.4670  -83.2600
  7125.0000   10.1230    9.1790  7125.0000    0.0870   86.6790   62.1790   64.4030    2.0290    2.3300    2.9280 -999.0000    0.3690    2.4580  -84.5600
  7125.5000    9.5160    9.1640  7125.5000    0.0520   84.0500   56.6560   57.0870    2.0960    2.5020    3.0440 -999.0000    0.3410    2.4240  -85.8940
  7126.0000    9.5400    9.1530  7126.0000    0.0170   77.7610   51.4030   49.7720    2.1640    2.6860    3.1650 -999.0000    0.3020    2.4580  -89.4940
  7126.5000    9.5640    9.1470  7126.5000    0.0140   73.8450   50.0240   42.3810    2.2350    2.8830    3.2900 -999.0000    0.2640    2.5170  -93.1280
  7127.0000    9.4650    9.1420  7127.0000    0.0470   72.1980   50.8190   38.4090    2.3390    3.0940    3.9600 -999.0000    0.2260    2.5780 -100.3480
  7127.5000    9.4110    9.1360  7127.5000    0.0950   74.5610   54.3920   41.4450    2.2260    3.3210    6.0150 -999.0000    0.1960    2.5440 -107.4710
  7128.0000    9.5290    9.1300  7128.0000    0.0790   78.9140   62.6660   46.7670    2.0610    3.4630    9.1360 -999.0000    0.1890    2.4750 -114.5670
  7128.5000    9.6470    9.1240  7128.5000    0.0670   83.7350   67.7540   52.8050    2.0110    3.0510   12.6680 -999.0000    0.2060    2.4400 -118.8080
