~Version Information Section
 VERS.      2.0         :CWLS LOG ASCII STANDARD - VERSION 2.0
 WRAP.      NO          :SINGLE LINE PER DEPTH STEP
 CREA.      8/24/2011 12:51:22
~Well Information Section
#MNEM.UNIT                      VALUE/NAME                 DESCRIPTION
#----.----     ----------------------------------   --------------------
 STRT .FT           1140.0000                         :START DEPTH
 STOP .FT          13950.0000                         :STOP DEPTH
 STEP .FT              0.5000                         :STEP VALUE
 NULL .             -999.0000                         :NULL VALUE
 SRVC .          SCH                                  :Service Company/Logging company
 DATE .          08/24/2011                           :LAS file Creation Date
 WELL .          PENOBSCOT L-30                       :Well Name
 COMP .          SHELL CANADA RESOURCES LIMITED       :Company
 FLD  .          Wildcat                              :Field
 STATE.          Nova Scotia Shelf                    :State
 COUNT.          Canada                               :Country
 LOC  .          44� 09' 43.558"N LAT|60� 04' 0   :Location
 LATI .          0                                    :Latitude/Northing
 LONG .          0                                    :Longitude/Easting
 PDAT .          RT                                   :Permanent Datum
 EPDAT.          0.0000                               :Elevation of Permanent Datum
 LGMEA.          RT                                   :Log Measured from
 APDAT.          98.0000                              :Elevation Above Permanent Datum
 KB   .          99.0000                              :KB Elevation
 GL   .          -451.0000                            :GL Elevation
 RWS  .          0                                    :Def_Rw
 WST  .          0                                    :Def_Rwt
 ERT  .          0.0000                               :RT Elevation
 CNTY .          NOVA SCOTIA SHELF                    :County
~Curve Information Section
#MNEM  .UNIT         CURVE DESCRIPTION
#----  .----         -------------------------
 DEPTH .FT           :1 Depth
 CALD  .IN           :2 Caliper    Caliper - Density
 CALS  .IN           :3 Caliper    Caliper - Sonic
 DEPT  .FT           :4 Depth
 DRHO  .G/CC         :5 Drho       Delta Rho
 DT    .US/F         :6 Sonic      Delta-T
 GRD   .GAPI         :7 GammaRay   Gamma Ray - Density
 GRS   .GAPI         :8 GammaRay   Gamma Ray - Sonic
 ILD   .OHMM         :9 DeepRes    Deep Induction Standard Processed Resistivity
 ILM   .OHMM         :10 MedRes     Medium Induction Standard Processed Resistivity
 LL8   .OHMM         :11 ShalRes    Latero-Log 8
 NPHILS.V/V          :12 Neutron    Neutron Porosity - Ls Mtx
 NPHISS.V/V          :13 Neutron    Neutron Porosity - Ss Mtx
 RHOB  .G/CC         :14 Density    Bulk Density
 SP    .MV           :15 SP         Spontaneous Potential
~Parameter Information Section
#MNEM.UNIT                      VALUE                       DESCRIPTION
#----.----     ----------------------------------   --------------------
~A  DEPTH     CALD      CALS      DEPT      DRHO       DT        GRD       GRS       ILD       ILM       LL8     NPHILS    NPHISS     RHOB       SP    
# ...
 10521.0000    8.5000    8.5660 10521.0000    0.0510   74.3550   43.3860   47.2750    2.4040    4.0910    9.7210 -999.0000    0.2320    2.4480 -122.5670
 10521.5000    8.4950    8.5720 10521.5000    0.0560   75.3390   44.7760   45.8950    2.3350    3.8990   11.6680 -999.0000    0.2210    2.4480 -121.6490
 10522.0000    8.4900    8.5770 10522.0000    0.0410   76.5690   46.6230   47.3500    2.2680    3.7170   13.6280 -999.0000    0.2140    2.4420 -120.7960
 10522.5000    8.4840    8.5830 10522.5000    0.0260   77.3880   46.0800   48.6480    2.2030    3.5430   11.0260 -999.0000    0.2280    2.4220 -119.9600
 10523.0000    8.4790    8.5880 10523.0000    0.0240   76.4290   43.0980   45.6600    2.1400    3.3090    7.9560 -999.0000    0.2440    2.4050 -119.2510
 10523.5000    8.4740    8.5920 10523.5000    0.0350   75.4690   40.5830   42.7180    2.0770    3.3510    8.9860 -999.0000    0.2400    2.4240 -120.5560
 10524.0000    8.4680    8.5960 10524.0000    0.0390   74.5090   41.7380   39.1310    2.1470    3.4250   10.7880 -999.0000    0.2330    2.4280 -121.8490
 10524.5000    8.5010    8.6000 10524.5000    0.0410   73.5500   43.8590   41.7150    2.2210    3.5010   12.9610 -999.0000    0.2160    2.4360 -123.1530
 10525.0000    8.5370    8.6040 10525.0000    0.0400   74.0910   49.2150   45.9170    2.2980    3.5790   13.7400 -999.0000    0.2100    2.4470 -122.9080
 10525.5000    8.5720    8.6090 10525.5000    0.0360   74.7330   54.6600   50.1210    2.3780    3.6580   14.3960 -999.0000    0.2080    2.4270 -121.0880
 10526.0000    8.6080    8.6130 10526.0000    0.0410   75.3730   57.4240   54.3250    2.4600    3.7390   12.4460 -999.0000    0.2200    2.4480 -119.2790
 10526.5000    8.6430    8.6170 10526.5000    0.0520   76.0130   59.8590   58.5310    2.5450    3.8220   11.4940 -999.0000    0.2340    2.4430 -117.4690
 10527.0000    8.6790    8.6210 10527.0000    0.0610   75.2130   61.5110   61.9690    2.6330    3.9070   10.8890 -999.0000    0.2430    2.4570 -114.2890
 10527.5000    8.7150    8.6250 10527.5000    0.0670   75.7010   61.2470   63.9090    2.7240    3.9900    8.9570 -999.0000    0.2480    2.4450 -110.3000
 10528.0000    8.7500    8.6300 10528.0000    0.0490   76.4450   63.0350   64.9890    2.8180    4.1440    9.7780 -999.0000    0.2530    2.4550 -106.3140
 10528.5000    8.7600    8.6340 10528.5000    0.0220   76.9900   65.7150   63.6800    2.9050    4.2990   11.7760 -999.0000    0.2510    2.4370 -103.5170
 10529.0000    8.7460    8.6380 10529.0000    0.0420   77.4160   67.7810   65.6990    2.9820    4.4590   10.0430 -999.0000    0.2530    2.4750 -101.1030
 10529.5000    8.7310    8.6340 10529.5000    0.0330   77.6850   65.1950   69.0170    3.0600    4.6250    7.9880 -999.0000    0.2600    2.4840  -98.6990
 10530.0000    8.7170    8.6290 10530.0000    0.0490   75.3740   63.8180   67.0310    3.1410    4.7810    9.7650 -999.0000    0.2580    2.4790  -99.3800
 10530.5000    8.7020    8.6250 10530.5000    0.0680   73.0640   64.5690   64.2690    3.2230    4.8600    9.5950 -999.0000    0.2600    2.4870 -100.1330
 10531.0000    8.6880    8.6210 10531.0000    0.0800   73.4190   63.8610   61.5920    3.3080    4.9400    9.4590 -999.0000    0.2650    2.4950 -100.8850
 10531.5000    8.6740    8.6160 10531.5000    0.0560   74.1260   62.0170   63.6600    3.3700    5.0210   11.1130 -999.0000    0.2630    2.4770 -101.3740
 10532.0000    8.6590    8.6120 10532.0000    0.0440   74.8330   60.9120   65.8800    3.2890    5.1290   11.9930 -999.0000    0.2590    2.4610 -101.8030
 10532.5000    8.6450    8.6070 10532.5000    0.0630   75.5400   61.6020   66.1660    3.2280    4.9300    9.5010 -999.0000    0.2640    2.4590 -102.2330
 10533.0000    8.6170    8.6030 10533.0000    0.0710   76.4470   62.2910   63.0670    3.1670    4.6580   12.1030 -999.0000    0.2700    2.4760 -102.8730
 10533.5000    8.5740    8.5980 10533.5000    0.0420   77.5100   60.8640   60.6350    3.1080    4.3320   10.6480 -999.0000    0.2750    2.4360 -103.9030
 10534.0000    8.5320    8.5940 10534.0000    0.0530   76.6690   58.5720   59.2840    3.0500    4.4600    8.4760 -999.0000    0.2800    2.4640 -104.9390
 10534.5000    8.4900    8.5900 10534.5000    0.0470   75.6180   56.2860   57.9330    2.9930    4.6440    9.7660 -999.0000    0.2830    2.4510 -105.9740
 10535.0000    8.4670    8.5900 10535.0000    0.0390   74.5670   57.5370   56.5810    2.9370    4.8350   11.8630 -999.0000    0.2640    2.4400 -107.0100
 10535.5000    8.5010    8.5950 10535.5000    0.0650   73.6050   61.0070   55.2290    2.8850    4.9450   14.1040 -999.0000    0.2530    2.4580 -108.0480
 10536.0000    8.5360    8.6000 10536.0000    0.1000   72.7480   65.8330   53.8440    2.9010    4.6350   14.7910 -999.0000    0.2450    2.4920 -107.1580
 10536.5000    8.5710    8.6040 10536.5000    0.1070   74.2620   70.6720   57.1530    2.9170    4.4310   15.5090 -999.0000    0.2410    2.5210 -104.9370
 10537.0000    8.6060    8.6090 10537.0000    0.0870   75.7590   72.2840   61.2950    2.9330    4.2370   16.2110 -999.0000    0.2530    2.4980 -102.7210
 10537.5000    8.6410    8.6140 10537.5000    0.0620   77.2590   70.4760   65.7890    2.9480    4.0820   10.2460 -999.0000    0.2710    2.4800 -100.5000
 10538.0000    8.6750    8.6190 10538.0000    0.0560   78.2970   69.4660   63.4690    2.9640    4.5340    7.8430 -999.0000    0.2940    2.4740  -99.3670
 10538.5000    8.7100    8.6240 10538.5000    0.0450   76.7170   70.1860   62.3010    2.9800    4.7900   10.5270 -999.0000    0.2820    2.4710  -99.6740
 10539.0000    8.7460    8.6290 10539.0000    0.0520   75.4080   70.9420   67.0760    2.9960    4.6750   13.3210 -999.0000    0.2670    2.4940  -99.0770
 10539.5000    8.6960    8.6340 10539.5000    0.0430   75.6650   67.1570   70.4630    3.0120    4.5550   10.3730 -999.0000    0.2600    2.4780  -97.3560
 10540.0000    8.6400    8.6390 10540.0000    0.0730   76.3430   58.9740   72.1930    3.0290    4.5740    8.7920 -999.0000    0.2690    2.4610  -99.0360
 10540.5000    8.5840    8.6440 10540.5000    0.0590   77.0190   49.2110   61.2590    3.0480    4.6110    9.7500 -999.0000    0.2750    2.4410 -100.8410
 10541.0000    8.5280    8.6480 10541.0000    0.0370   76.4470   45.9820   53.4620    2.9690    4.6480   10.5530 -999.0000    0.2790    2.4210 -102.6480
 10541.5000    8.5140    8.6500 10541.5000    0.0360   75.7720   49.3990   46.6050    2.8750    4.7030   10.4220 -999.0000    0.2600    2.4030 -103.9730
 10542.0000    8.6040    8.6510 10542.0000    0.0510   75.0960   55.5630   42.3250    2.7840    4.5830   10.3150 -999.0000    0.2470    2.4460 -105.2980
 10542.5000    8.6950    8.6530 10542.5000    0.0740   75.1590   61.7120   43.0930    2.6580    4.3660   12.5860 -999.0000    0.2270    2.4810 -106.6220
 10543.0000    8.7860    8.6550 10543.0000    0.0660   76.0740   66.4280   47.7860    2.7200    4.1600   16.1330 -999.0000    0.2330    2.4960 -105.6290
 10543.5000    8.8770    8.6570 10543.5000    0.0540   76.5570   71.4650   55.0650    2.8390    3.9180   13.8730 -999.0000    0.2450    2.4870 -103.1970
 10544.0000    8.9680    8.6580 10544.0000    0.0880   75.9850   78.2910   62.3300    2.9630    4.1040    8.3230 -999.0000    0.2540    2.5040 -100.7680
 10544.5000    9.0600    8.6600 10544.5000    0.1140   75.5820   82.4520   69.5950    3.0920    4.3620    9.4640 -999.0000    0.2580    2.5220  -98.5430
 10545.0000    9.1110    8.6620 10545.0000    0.1280   76.5140   78.8840   76.8600    3.2040    4.6370   13.9430 -999.0000    0.2620    2.5440  -96.9390
 10545.5000    8.8910    8.6640 10545.5000    0.1180   77.4400   74.9570   84.1410    3.2820    4.9280   11.1920 -999.0000    0.2860    2.5290  -95.3320
 10546.0000    8.9750    8.6660 10546.0000    0.1390   76.8150   72.4890   87.0660    3.3610    5.2380    7.9510 -999.0000    0.3050    2.5180  -94.6910
 10546.5000    9.0430    8.6670 10546.5000    0.1260   75.8100   69.1060   83.9190    3.4430    5.4090   11.0100 -999.0000    0.2960    2.5300  -95.6500
 10547.0000    8.9580    8.6670 10547.0000    0.0910   77.3750   62.1650   81.0690    3.5260    5.4770   13.9430 -999.0000    0.3130    2.4650  -96.5860
