~Version Information Section
 VERS.      2.0         :CWLS LOG ASCII STANDARD - VERSION 2.0
 WRAP.      NO          :SINGLE LINE PER DEPTH STEP
 CREA.      8/24/2011 12:51:22
~Well Information Section
#MNEM.UNIT                      VALUE/NAME                 DESCRIPTION
#----.----     ----------------------------------   --------------------
 STRT .FT           1140.0000                         :START DEPTH
 STOP .FT          13950.0000                         :STOP DEPTH
 STEP .FT              0.5000                         :STEP VALUE
 NULL .             -999.0000                         :NULL VALUE
 SRVC .          SCH                                  :Service Company/Logging company
 DATE .          08/24/2011                           :LAS file Creation Date
 WELL .          PENOBSCOT L-30                       :Well Name
 COMP .          SHELL CANADA RESOURCES LIMITED       :Company
 FLD  .          Wildcat                              :Field
 STATE.          Nova Scotia Shelf                    :State
 COUNT.          Canada                               :Country
 LOC  .          44� 09' 43.558"N LAT|60� 04' 0   :Location
 LATI .          0                                    :Latitude/Northing
 LONG .          0                                    :Longitude/Easting
 PDAT .          RT                                   :Permanent Datum
 EPDAT.          0.0000                               :Elevation of Permanent Datum
 LGMEA.          RT                                   :Log Measured from
 APDAT.          98.0000                              :Elevation Above Permanent Datum
 KB   .          99.0000                              :KB Elevation
 GL   .          -451.0000                            :GL Elevation
 RWS  .          0                                    :Def_Rw
 WST  .          0                                    :Def_Rwt
 ERT  .          0.0000                               :RT Elevation
 CNTY .          NOVA SCOTIA SHELF                    :County
~Curve Information Section
#MNEM  .UNIT         CURVE DESCRIPTION
#----  .----         -------------------------
 DEPTH .FT           :1 Depth
 CALD  .IN           :2 Caliper    Caliper - Density
 CALS  .IN           :3 Caliper    Caliper - Sonic
 DEPT  .FT           :4 Depth
 DRHO  .G/CC         :5 Drho       Delta Rho
 DT    .US/F         :6 Sonic      Delta-T
 GRD   .GAPI         :7 GammaRay   Gamma Ray - Density
 GRS   .GAPI         :8 GammaRay   Gamma Ray - Sonic
 ILD   .OHMM         :9 DeepRes    Deep Induction Standard Processed Resistivity
 ILM   .OHMM         :10 MedRes     Medium Induction Standard Processed Resistivity
 LL8   .OHMM         :11 ShalRes    Latero-Log 8
 NPHILS.V/V          :12 Neutron    Neutron Porosity - Ls Mtx
 NPHISS.V/V          :13 Neutron    Neutron Porosity - Ss Mtx
 RHOB  .G/CC         :14 Density    Bulk Density
 SP    .MV           :15 SP         Spontaneous Potential
~Parameter Information Section
#MNEM.UNIT                      VALUE                       DESCRIPTION
#----.----     ----------------------------------   --------------------
~A  DEPTH     CALD      CALS      DEPT      DRHO       DT        GRD       GRS       ILD       ILM       LL8     NPHILS    NPHISS     RHOB       SP    
# ...
  8825.0000   11.1450    8.8860  8825.0000    0.1240   76.7370   74.6880   82.2140    3.3400    3.8620    4.9360 -999.0000    0.3210    2.4940  -74.5390
  8825.5000   10.8770    8.8850  8825.5000    0.0360   78.8220   73.1280   85.9280    3.4780    3.9940    4.7250 -999.0000    0.3320    2.4260  -73.6820
  8826.0000   10.7660    8.8830  8826.0000    0.0150   80.9130   71.5650   87.1740    3.6220    4.1310    4.9940 -999.0000    0.3130    2.4630  -73.2160
  8826.5000   10.9210    8.8820  8826.5000    0.0120   82.1550   70.5390   82.0390    3.8470    4.2730    5.3440 -999.0000    0.2860    2.4990  -73.8220
  8827.0000   11.0780    8.8810  8827.0000    0.0120   82.9900   72.0730   78.3080    3.7570    4.4320    5.0600 -999.0000    0.2590    2.5130  -74.4330
  8827.5000   11.2040    8.8800  8827.5000    0.0110   81.5470   73.0500   73.8180    3.5880    4.2420    4.7950 -999.0000    0.2680    2.4930  -75.7540
  8828.0000   11.2060    8.8790  8828.0000    0.0060   79.8010   68.5600   69.2920    3.4270    4.0460    4.5760 -999.0000    0.2770    2.4770  -77.5820
  8828.5000   11.2090    8.8780  8828.5000    0.0030   78.0660   66.4190   66.7390    3.2730    3.8580    5.5370 -999.0000    0.2870    2.4630  -79.0220
  8829.0000   11.2110    8.8770  8829.0000    0.0080   78.8790   64.7960   70.6940    3.0960    3.6790    6.9650 -999.0000    0.2890    2.4780  -79.5880
  8829.5000   11.2390    8.8760  8829.5000    0.0130   79.6870   63.3330   71.1980    2.9180    3.5090    5.9500 -999.0000    0.2860    2.4700  -80.1480
  8830.0000   11.2900    8.8750  8830.0000    0.0190   80.4910   63.3040   71.6650    2.7500    3.3460    4.6550 -999.0000    0.2910    2.4610  -80.8150
  8830.5000   11.2980    8.8730  8830.5000    0.0090   81.6710   63.7710   70.5920    2.5920    3.1910    3.6800 -999.0000    0.3060    2.4510  -82.3620
  8831.0000   11.2710    8.8720  8831.0000    0.0060   82.8740   64.2260   67.3420    2.4430    3.0430    3.5600 -999.0000    0.3200    2.4430  -83.8870
  8831.5000   11.2440    8.8710  8831.5000    0.0070   84.0770   66.2710   64.0920    2.3020    2.9020    3.4400 -999.0000    0.3200    2.4560  -85.4120
  8832.0000   11.2650    8.8700  8832.0000    0.0070   84.4480   68.5600   61.9090    2.1700    2.7680    3.3090 -999.0000    0.3080    2.4760  -86.9370
  8832.5000   11.3220    8.8690  8832.5000    0.0060   83.8360   69.6130   65.2000    2.0300    2.6390    3.3490 -999.0000    0.2900    2.4850  -88.4640
  8833.0000   11.3780    8.8680  8833.0000    0.0050   82.8850   70.5110   68.1240    2.1070    2.5510    3.3960 -999.0000    0.2800    2.4900  -89.4920
  8833.5000   11.4180    8.8680  8833.5000    0.0050   81.7690   71.2170   71.1040    2.2000    2.6750    3.4630 -999.0000    0.2590    2.4940  -88.1240
  8834.0000   11.4000    8.8700  8834.0000    0.0090   80.6540   72.9830   70.1900    2.2960    2.7770    3.4070 -999.0000    0.2660    2.4890  -86.7680
  8834.5000   11.3820    8.8720  8834.5000    0.0250   80.0080   75.7720   69.1410    2.3960    2.8820    3.2940 -999.0000    0.2720    2.4830  -85.4130
  8835.0000   11.4770    8.8740  8835.0000    0.0620   79.6780   81.5790   68.0920    2.5010    2.9920    3.4760 -999.0000    0.2710    2.5240  -84.0590
  8835.5000   11.7120    8.8760  8835.5000    0.1020   79.3490   86.8710   68.3410    2.6110    3.1050    3.7200 -999.0000    0.2710    2.5540  -82.7040
  8836.0000   11.8880    8.8780  8836.0000    0.1420   78.7330   91.4100   70.7340    2.7250    3.2230    3.9810 -999.0000    0.2860    2.5770  -81.3510
  8836.5000   11.9630    8.8800  8836.5000    0.1530   77.7700   94.6280   75.9520    2.8440    3.3460    4.2600 -999.0000    0.3180    2.5900  -79.2300
  8837.0000   12.0370    8.8820  8837.0000    0.1350   78.8490   95.6780   81.5310    2.9690    3.4730    4.5590 -999.0000    0.3550    2.5160  -77.1390
  8837.5000   12.1140    8.8840  8837.5000    0.1150   79.8950   93.9690   87.1090    3.0990    3.6050    4.8790 -999.0000    0.3890    2.4720  -74.4830
  8838.0000   12.3800    8.8860  8838.0000    0.1350   81.5900   91.5480   92.2570    3.2340    3.7420    5.1050 -999.0000    0.4150    2.4780  -71.3500
  8838.5000   12.6490    8.8980  8838.5000    0.1820   83.5050   89.1290   95.1070    3.3850    3.8650    4.8240 -999.0000    0.4420    2.4650  -68.3020
  8839.0000   12.7080    8.9000  8839.0000    0.1600   85.0990   87.5050   92.8940    3.2730    3.7280    4.6220 -999.0000    0.4500    2.4270  -66.8390
  8839.5000   12.6790    8.9030  8839.5000    0.1650   86.7710   87.5010   90.7410    3.1580    3.6120    4.4280 -999.0000    0.4510    2.4050  -65.6830
  8840.0000   12.5500    8.9060  8840.0000    0.1760   88.5060   87.4130   88.5930    3.0460    3.5000    4.2430 -999.0000    0.4510    2.4250  -64.9160
  8840.5000   11.5910    8.9090  8840.5000    0.2030   90.2410   85.7280   88.8030    2.9380    3.3910    4.0650 -999.0000    0.4510    2.4380  -65.6590
  8841.0000   11.9240    8.9110  8841.0000    0.2400   92.1380   83.6850   90.4190    2.8350    3.2850    3.9510 -999.0000    0.4510    2.5390  -66.3890
  8841.5000   12.6470    8.9140  8841.5000    0.2500   90.9740   81.0370   88.6810    2.7340    3.1830    3.9040 -999.0000    0.4510    2.6110  -67.1170
  8842.0000   12.7620    8.9170  8842.0000    0.2500   89.0620   79.7420   86.3140    2.5980    3.0620    3.8590 -999.0000    0.4510    2.5370  -67.0060
  8842.5000   12.4430    8.9200  8842.5000    0.1670   85.8150   80.5870   83.3710    2.6300    3.0940    3.7950 -999.0000    0.4510    2.4210  -66.3810
  8843.0000   12.1030    8.9220  8843.0000    0.1790   82.6900   81.4340   80.2870    2.6890    3.1360    4.2310 -999.0000    0.4510    2.4880  -67.3790
  8843.5000   12.3450    8.9250  8843.5000    0.1910   85.6320   82.2120   80.3840    2.7480    3.1780    5.3200 -999.0000    0.4510    2.4670  -68.4500
  8844.0000   12.5470    8.9240  8844.0000    0.1640   87.7000   80.1350   82.9050    2.8090    3.2220    4.7380 -999.0000    0.4510    2.4310  -67.8930
  8844.5000   11.4670    8.9120  8844.5000    0.1270   90.4130   81.3590   85.4750    2.8720    3.2650    3.7950 -999.0000    0.4510    2.4100  -68.5920
  8845.0000   10.3420    8.9000  8845.0000    0.0910   91.1850   82.8120   83.3230    2.9350    3.3080    3.9520 -999.0000    0.4510    2.5200  -68.9320
  8845.5000   10.5050    8.8880  8845.5000    0.1460   90.4650   84.2610   80.6010    3.0000    3.3500    4.3920 -999.0000    0.3780    2.6320  -68.4820
  8846.0000   10.6900    8.8760  8846.0000    0.1300   88.6510   85.7120   80.4620    3.0670    3.3930    4.1340 -999.0000    0.3240    2.5300  -68.0350
  8846.5000   10.9300    8.8640  8846.5000    0.1610   84.0730   86.7340   82.9090    3.1350    3.4900    3.6420 -999.0000    0.3410    2.4450  -67.5890
  8847.0000   11.7980    8.8520  8847.0000    0.1890   81.0550   85.7130   85.3390    3.2040    3.6030    3.9680 -999.0000    0.3680    2.4030  -67.1470
  8847.5000   12.6690    8.8400  8847.5000    0.1610   78.4630   84.8260   87.7740    3.2750    3.7200    4.6830 -999.0000    0.3950    2.3600  -66.2940
  8848.0000   13.0790    8.8280  8848.0000    0.1360   82.2600   85.1410   89.8040    3.3240    3.8410    5.5270 -999.0000    0.4230    2.3010  -65.4010
  8848.5000   13.2020    8.8310  8848.5000    0.1510   86.0190   80.9870   88.7360    3.1160    3.9360    6.5910 -999.0000    0.4500    2.2420  -64.5090
  8849.0000   12.9850    8.8360  8849.0000    0.1400   88.9650   75.0100   87.7050    2.9690    3.6560    5.6920 -999.0000    0.4500    2.1600  -63.9970
  8849.5000   11.3800    8.8410  8849.5000    0.0980   93.5500   69.0300   86.6710    2.8280    3.4450    4.8620 -999.0000    0.4500    2.1970  -64.7510
  8850.0000    9.9370    8.8460  8850.0000    0.0280   99.8940   63.0560   84.7980    2.6940    3.2450    4.1540 -999.0000    0.4430    2.4100  -65.5050
  8850.5000    9.6340    8.8510  8850.5000    0.0030   98.0880   58.1910   81.4050    2.5510    3.0570    3.5490 -999.0000    0.4160    2.5770  -66.2890
  8851.0000    9.5220    8.8560  8851.0000   -0.0040   94.3660   56.4450   76.9870    2.7000    2.9120    3.2210 -999.0000    0.3730    2.6500  -67.3910
