~Version Information Section
 VERS.      2.0         :CWLS LOG ASCII STANDARD - VERSION 2.0
 WRAP.      NO          :SINGLE LINE PER DEPTH STEP
 CREA.      8/24/2011 12:51:22
~Well Information Section
#MNEM.UNIT                      VALUE/NAME                 DESCRIPTION
#----.----     ----------------------------------   --------------------
 STRT .FT           1140.0000                         :START DEPTH
 STOP .FT          13950.0000                         :STOP DEPTH
 STEP .FT              0.5000                         :STEP VALUE
 NULL .             -999.0000                         :NULL VALUE
 SRVC .          SCH                                  :Service Company/Logging company
 DATE .          08/24/2011                           :LAS file Creation Date
 WELL .          PENOBSCOT L-30                       :Well Name
 COMP .          SHELL CANADA RESOURCES LIMITED       :Company
 FLD  .          Wildcat                              :Field
 STATE.          Nova Scotia Shelf                    :State
 COUNT.          Canada                               :Country
 LOC  .          44� 09' 43.558"N LAT|60� 04' 0   :Location
 LATI .          0                                    :Latitude/Northing
 LONG .          0                                    :Longitude/Easting
 PDAT .          RT                                   :Permanent Datum
 EPDAT.          0.0000                               :Elevation of Permanent Datum
 LGMEA.          RT                                   :Log Measured from
 APDAT.          98.0000                              :Elevation Above Permanent Datum
 KB   .          99.0000                              :KB Elevation
 GL   .          -451.0000                            :GL Elevation
 RWS  .          0                                    :Def_Rw
 WST  .          0                                    :Def_Rwt
 ERT  .          0.0000                               :RT Elevation
 CNTY .          NOVA SCOTIA SHELF                    :County
~Curve Information Section
#MNEM  .UNIT         CURVE DESCRIPTION
#----  .----         -------------------------
 DEPTH .FT           :1 Depth
 CALD  .IN           :2 Caliper    Caliper - Density
 CALS  .IN           :3 Caliper    Caliper - Sonic
 DEPT  .FT           :4 Depth
 DRHO  .G/CC         :5 Drho       Delta Rho
 DT    .US/F         :6 Sonic      Delta-T
 GRD   .GAPI         :7 GammaRay   Gamma Ray - Density
 GRS   .GAPI         :8 GammaRay   Gamma Ray - Sonic
 ILD   .OHMM         :9 DeepRes    Deep Induction Standard Processed Resistivity
 ILM   .OHMM         :10 MedRes     Medium Induction Standard Processed Resistivity
 LL8   .OHMM         :11 ShalRes    Latero-Log 8
 NPHILS.V/V          :12 Neutron    Neutron Porosity - Ls Mtx
 NPHISS.V/V          :13 Neutron    Neutron Porosity - Ss Mtx
 RHOB  .G/CC         :14 Density    Bulk Density
 SP    .MV           :15 SP         Spontaneous Potential
~Parameter Information Section
#MNEM.UNIT                      VALUE                       DESCRIPTION
#----.----     ----------------------------------   --------------------
~A  DEPTH     CALD      CALS      DEPT      DRHO       DT        GRD       GRS       ILD       ILM       LL8     NPHILS    NPHISS     RHOB       SP    
# ...
  6254.5000   12.5290   10.9710  6254.5000    0.1090   92.1300   86.2750   80.9010    1.7940    1.9730    2.7490 -999.0000    0.3650    2.4630  -96.4630
  6255.0000   12.5580   10.9670  6255.0000    0.1020   92.3220   86.1010   81.9910    1.8090    1.9500    2.5590 -999.0000    0.3650    2.4500  -95.8360
  6255.5000   12.5400   10.9620  6255.5000    0.1000   92.8880   84.7280   83.1870    1.7810    1.9040    2.5810 -999.0000    0.3660    2.4370  -96.4020
  6256.0000   12.4920   10.9570  6256.0000    0.1090   93.4540   84.3530   81.6840    1.7520    1.8590    2.6240 -999.0000    0.3680    2.4280  -99.4310
  6256.5000   12.4430   10.9530  6256.5000    0.1350   93.7220   84.6050   80.1040    1.7220    1.8160    2.6910 -999.0000    0.3570    2.4640 -102.4770
  6257.0000   12.4600   10.9480  6257.0000    0.1250   93.3050   86.2390   80.3200    1.6930    1.7760    2.6560 -999.0000    0.3650    2.4630 -106.1570
  6257.5000   12.4810   10.9440  6257.5000    0.1260   92.8880   88.3670   83.0750    1.6650    1.7970    2.5820 -999.0000    0.3760    2.4840 -104.7710
  6258.0000   12.5020   10.9390  6258.0000    0.1110   92.4700   89.6440   85.5360    1.6230    1.8160    2.5110 -999.0000    0.3870    2.4670 -102.8430
  6258.5000   12.4660   10.9340  6258.5000    0.1220   92.0530   88.8890   86.5730    1.5680    1.8340    2.4230 -999.0000    0.3980    2.4750 -101.5550
  6259.0000   12.3920   10.9300  6259.0000    0.1280   91.7010   87.2290   84.8220    1.5150    1.7330    2.4460 -999.0000    0.3980    2.4670 -101.8620
  6259.5000   12.3620   10.9240  6259.5000    0.1350   92.3390   85.5440   83.0910    1.4630    1.6470    2.4780 -999.0000    0.3940    2.4540 -103.9280
  6260.0000   12.3910   10.9070  6260.0000    0.1410   92.8240   87.2520   81.3720    1.4130    1.5650    2.5240 -999.0000    0.3900    2.4620 -106.2530
  6260.5000   12.4200   10.8900  6260.5000    0.1350   92.6560   91.8390   81.9520    1.3640    1.4880    2.3990 -999.0000    0.3940    2.4540 -108.5770
  6261.0000   12.4480   10.8730  6261.0000    0.1180   92.8330   94.4880   84.0580    1.3170    1.4070    2.1420 -999.0000    0.4040    2.4420 -110.9010
  6261.5000   12.3780   10.8560  6261.5000    0.1160   93.5060   93.5380   88.0300    1.2710    1.4270    2.2490 -999.0000    0.3910    2.4310 -113.2580
  6262.0000   12.2380   10.8390  6262.0000    0.1250   94.1790   93.6360   91.9990    1.2270    1.4530    2.4900 -999.0000    0.3810    2.4440 -112.8660
  6262.5000   12.1010   10.8220  6262.5000    0.1380   94.8530   94.8500   95.1230    1.1850    1.4250    2.4490 -999.0000    0.3860    2.4570 -112.4040
  6263.0000   12.0580   10.8100  6263.0000    0.1330   95.5260   95.6940   96.4210    1.1460    1.3920    2.3740 -999.0000    0.3910    2.4480 -113.6800
  6263.5000   12.0160   10.8260  6263.5000    0.1470   95.6820   93.9740   94.1680    1.1760    1.3570    2.3020 -999.0000    0.3850    2.4510 -113.0120
  6264.0000   12.0400   10.8420  6264.0000    0.1280   95.2510   93.0020   92.2480    1.2050    1.3810    2.2320 -999.0000    0.3790    2.4200 -113.6550
  6264.5000   12.0730   10.8590  6264.5000    0.1250   94.8210   93.9560   91.7520    1.2350    1.4090    2.1710 -999.0000    0.3740    2.4270 -114.7200
  6265.0000   12.2220   10.8750  6265.0000    0.1250   95.2800   93.9860   90.7340    1.2660    1.4380    2.2640 -999.0000    0.3810    2.4120 -109.3850
  6265.5000   12.4920   10.8910  6265.5000    0.1080   96.1950   93.1650   88.9620    1.2970    1.4670    2.4010 -999.0000    0.3870    2.3980 -104.1540
  6266.0000   12.5420   10.9070  6266.0000    0.1060   97.3890   94.4980   87.1910    1.3420    1.5090    2.3820 -999.0000    0.3790    2.4360 -100.9490
  6266.5000   12.5440   10.9220  6266.5000    0.1040   98.5820   94.1160   85.4180    1.4060    1.5760    2.3410 -999.0000    0.3820    2.4300  -99.0860
  6267.0000   12.5470   10.9380  6267.0000    0.1010   99.4180   92.7600   83.6450    1.4730    1.6450    2.2940 -999.0000    0.3860    2.4310  -94.0830
  6267.5000   12.5490   10.9540  6267.5000    0.0870  100.1900   94.0730   85.0350    1.5420    1.7170    2.3520 -999.0000    0.3950    2.4130  -91.4470
  6268.0000   12.5520   10.9700  6268.0000    0.0960  100.8700   94.8970   87.4060    1.6050    1.7910    2.4270 -999.0000    0.4050    2.4340  -90.3950
  6268.5000   12.5540   10.9860  6268.5000    0.1080  100.5110   93.7370   88.8000    1.6710    1.8670    2.5240 -999.0000    0.4150    2.4500  -89.9520
  6269.0000   12.5570   10.9820  6269.0000    0.1140  100.1520   93.7120   89.0240    1.7400    1.9240    2.5210 -999.0000    0.4220    2.4590  -89.5110
  6269.5000   12.5590   10.9800  6269.5000    0.0870  100.2420   94.7550   88.1890    1.7940    1.9530    2.5160 -999.0000    0.4070    2.4280  -89.0700
  6270.0000   12.5600   10.9790  6270.0000    0.0690  101.3100   95.0860   87.7520    1.8190    1.9820    2.5130 -999.0000    0.4010    2.4080  -89.1090
  6270.5000   12.5600   10.9690  6270.5000    0.0890  102.3790   94.1070   87.8620    1.8450    2.0120    2.7150 -999.0000    0.4130    2.4350  -88.9440
  6271.0000   12.5600   10.9590  6271.0000    0.1120  103.4480   94.5400   85.8200    1.8720    2.0420    2.6870 -999.0000    0.4320    2.4680  -87.9410
  6271.5000   12.5600   10.9490  6271.5000    0.1030  104.5170   97.5990   83.7220    1.8980    2.0730    2.6520 -999.0000    0.4540    2.4560  -86.9360
  6272.0000   12.5600   10.9400  6272.0000    0.0970  105.7150   98.9380   83.8790    1.9260    2.1050    2.6300 -999.0000    0.4570    2.4430  -85.9310
  6272.5000   12.5610   10.9300  6272.5000    0.1040  104.5660   97.7810   86.8290    1.9530    2.1360    2.7490 -999.0000    0.4580    2.4610  -84.9250
  6273.0000   12.5640   10.9200  6273.0000    0.0950  105.1160   94.8670   89.0670    1.9810    2.1690    2.8420 -999.0000    0.4590    2.4680  -83.9260
  6273.5000   12.5680   10.9100  6273.5000    0.0830  103.5000   91.8900   89.9420    2.0090    2.2010    2.7730 -999.0000    0.4560    2.4480  -84.5110
  6274.0000   12.5410   10.9110  6274.0000    0.1100  101.3020   90.3260   88.4250    1.9640    2.1510    2.7050 -999.0000    0.4470    2.4630  -85.4440
  6274.5000   12.4340   10.9170  6274.5000    0.1210   99.1020   88.7540   86.6990    1.9200    2.1010    2.6540 -999.0000    0.4290    2.4590  -85.8310
  6275.0000   12.3260   10.9230  6275.0000    0.1330   96.9050   86.7280   83.2040    1.8770    2.0530    2.7100 -999.0000    0.4140    2.4690  -86.4530
  6275.5000   12.2390   10.9290  6275.5000    0.1220   97.2770   84.0010   79.7650    1.8350    2.0060    2.7570 -999.0000    0.4100    2.4750  -89.0240
  6276.0000   12.3400   10.9340  6276.0000    0.1070   98.1180   82.7510   76.0710    1.7960    1.9600    2.7910 -999.0000    0.4140    2.4720  -92.9540
  6276.5000   12.4380   10.9400  6276.5000    0.1060   97.6060   82.9120   78.5420    1.7670    1.9150    2.6470 -999.0000    0.4220    2.4910  -93.7240
  6277.0000   12.5370   10.9460  6277.0000    0.1070   97.0810   78.8950   81.5150    1.7400    1.8680    2.5820 -999.0000    0.4310    2.5120  -91.3770
  6277.5000   12.5410   10.9510  6277.5000    0.1140   94.6050   72.4790   79.9280    1.7120    1.8830    2.6840 -999.0000    0.4180    2.5080  -87.8330
  6278.0000   12.5220   10.9570  6278.0000    0.1040   91.6430   64.9830   72.1220    1.6900    1.9000    2.7400 -999.0000    0.4070    2.4850  -86.3330
  6278.5000   12.5360   10.9630  6278.5000    0.0790   84.9890   61.7290   65.3330    1.7920    1.9170    2.5510 -999.0000    0.4020    2.4540  -92.4970
  6279.0000   12.5500   10.9570  6279.0000    0.0580   78.0260   58.5370   60.1770    1.8860    2.0220    2.4080 -999.0000    0.3980    2.4580  -96.8540
  6279.5000   12.5520   10.9170  6279.5000    0.0450   71.8220   55.3320   54.6890    1.9860    2.1480    2.3250 -999.0000    0.3550    2.4470 -100.0760
  6280.0000   12.5160   10.8780  6280.0000    0.0730   69.8660   52.7400   51.1870    2.1320    2.2810    3.3000 -999.0000    0.3220    2.4650 -102.3340
  6280.5000   12.4810   10.8380  6280.5000    0.0950   73.9940   57.5610   48.8920    1.8990    2.4340    5.8490 -999.0000    0.3000    2.4820 -108.5260
