~Version Information Section
 VERS.      2.0         :CWLS LOG ASCII STANDARD - VERSION 2.0
 WRAP.      NO          :SINGLE LINE PER DEPTH STEP
 CREA.      8/24/2011 12:51:22
~Well Information Section
#MNEM.UNIT                      VALUE/NAME                 DESCRIPTION
#----.----     ----------------------------------   --------------------
 STRT .FT           1140.0000                         :START DEPTH
 STOP .FT          13950.0000                         :STOP DEPTH
 STEP .FT              0.5000                         :STEP VALUE
 NULL .             -999.0000                         :NULL VALUE
 SRVC .          SCH                                  :Service Company/Logging company
 DATE .          08/24/2011                           :LAS file Creation Date
 WELL .          PENOBSCOT L-30                       :Well Name
 COMP .          SHELL CANADA RESOURCES LIMITED       :Company
 FLD  .          Wildcat                              :Field
 STATE.          Nova Scotia Shelf                    :State
 COUNT.          Canada                               :Country
 LOC  .          44� 09' 43.558"N LAT|60� 04' 0   :Location
 LATI .          0                                    :Latitude/Northing
 LONG .          0                                    :Longitude/Easting
 PDAT .          RT                                   :Permanent Datum
 EPDAT.          0.0000                               :Elevation of Permanent Datum
 LGMEA.          RT                                   :Log Measured from
 APDAT.          98.0000                              :Elevation Above Permanent Datum
 KB   .          99.0000                              :KB Elevation
 GL   .          -451.0000                            :GL Elevation
 RWS  .          0                                    :Def_Rw
 WST  .          0                                    :Def_Rwt
 ERT  .          0.0000                               :RT Elevation
 CNTY .          NOVA SCOTIA SHELF                    :County
~Curve Information Section
#MNEM  .UNIT         CURVE DESCRIPTION
#----  .----         -------------------------
 DEPTH .FT           :1 Depth
 CALD  .IN           :2 Caliper    Caliper - Density
 CALS  .IN           :3 Caliper    Caliper - Sonic
 DEPT  .FT           :4 Depth
 DRHO  .G/CC         :5 Drho       Delta Rho
 DT    .US/F         :6 Sonic      Delta-T
 GRD   .GAPI         :7 GammaRay   Gamma Ray - Density
 GRS   .GAPI         :8 GammaRay   Gamma Ray - Sonic
 ILD   .OHMM         :9 DeepRes    Deep Induction Standard Processed Resistivity
 ILM   .OHMM         :10 MedRes     Medium Induction Standard Processed Resistivity
 LL8   .OHMM         :11 ShalRes    Latero-Log 8
 NPHILS.V/V          :12 Neutron    Neutron Porosity - Ls Mtx
 NPHISS.V/V          :13 Neutron    Neutron Porosity - Ss Mtx
 RHOB  .G/CC         :14 Density    Bulk Density
 SP    .MV           :15 SP         Spontaneous Potential
~Parameter Information Section
#MNEM.UNIT                      VALUE                       DESCRIPTION
#----.----     ----------------------------------   --------------------
~A  DEPTH     CALD      CALS      DEPT      DRHO       DT        GRD       GRS       ILD       ILM       LL8     NPHILS    NPHISS     RHOB       SP    
# ...
  9673.0000    9.3700    8.7630  9673.0000    0.0470   73.0790   70.0800   72.5650    4.3120    4.6900    8.0580 -999.0000    0.2610    2.4950  -77.4330
  9673.5000    9.2920    8.7590  9673.5000    0.0420   73.7140   67.3420   74.5030    4.1110    4.8130    6.5080 -999.0000    0.2740    2.4730  -79.0540
  9674.0000    9.2180    8.7550  9674.0000    0.0330   74.3500   67.0590   76.4770    3.9320    4.9390    5.5180 -999.0000    0.2790    2.4460  -80.6580
  9674.5000    9.2520    8.7520  9674.5000    0.0310   75.2440   68.0610   74.0720    3.7610    5.0830    6.5590 -999.0000    0.2810    2.4660  -84.9310
  9675.0000    9.2860    8.7480  9675.0000    0.0420   76.2890   69.0540   71.3700    3.5980    4.6970    8.0590 -999.0000    0.2830    2.4810  -89.6970
  9675.5000    9.3210    8.7500  9675.5000    0.0340   77.2420   70.0480   68.4530    3.4420    4.3000    7.7960 -999.0000    0.2840    2.4740  -94.4640
  9676.0000    9.3550    8.7530  9676.0000    0.0430   76.6630   69.5840   70.1340    3.2920    3.9370    7.4280 -999.0000    0.2790    2.5100  -98.1230
  9676.5000    9.2130    8.7570  9676.5000    0.0570   76.0910   68.6620   72.8880    3.1500    3.6420    7.0800 -999.0000    0.2750    2.4990 -100.1560
  9677.0000    9.0620    8.7600  9677.0000    0.0410   76.5340   67.7380   72.8230    3.0130    3.7900    6.7480 -999.0000    0.2860    2.4730  -98.3240
  9677.5000    9.0970    8.7630  9677.5000    0.0190   77.1060   67.0800   70.7420    2.8850    3.9290    6.0650 -999.0000    0.2940    2.4550  -96.5180
  9678.0000    9.1540    8.7660  9678.0000    0.0240   76.7240   67.5880   68.6630    2.8570    4.0820    5.0590 -999.0000    0.2790    2.4630  -95.5890
  9678.5000    9.1640    8.7690  9678.5000    0.0140   75.9580   68.0920   67.0740    2.8290    3.9380    6.1360 -999.0000    0.2830    2.4530  -96.8350
  9679.0000    9.1320    8.7720  9679.0000    0.0350   75.4230   68.6160   69.5540    2.8020    3.7880    7.9150 -999.0000    0.2880    2.4810  -98.0930
  9679.5000    9.1000    8.7750  9679.5000    0.0420   75.1810   67.1940   71.3750    2.7750    3.6090    7.3120 -999.0000    0.2870    2.4700  -98.8890
  9680.0000    9.0680    8.7780  9680.0000    0.0230   74.9330   65.5980   68.9880    2.7480    3.6180    6.4620 -999.0000    0.2870    2.4480  -97.8400
  9680.5000    9.0360    8.7810  9680.5000    0.0330   75.7650   65.9100   66.6630    2.7220    3.6320    5.7500 -999.0000    0.2920    2.4370  -96.7600
  9681.0000    9.0040    8.7840  9681.0000    0.0410   76.8320   66.5940   66.0460    2.6940    3.6450    6.1000 -999.0000    0.2950    2.4300  -99.2290
  9681.5000    8.9890    8.7870  9681.5000    0.0220   78.4140   67.2770   68.3420    2.5900    3.6590    6.4530 -999.0000    0.2970    2.4170 -101.9870
  9682.0000    9.0750    8.7900  9682.0000    0.0130   79.8060   67.9590   68.4640    2.4860    3.5160    6.8260 -999.0000    0.2980    2.4320 -104.7470
  9682.5000    9.1610    8.7930  9682.5000    0.0130   78.1860   69.4300   67.5720    2.4040    3.3730    7.2200 -999.0000    0.2870    2.4740 -106.4640
  9683.0000    9.2460    8.7970  9683.0000    0.0070   76.3730   71.2990   69.5550    2.4990    3.2340    7.6390 -999.0000    0.2670    2.5180 -105.0970
  9683.5000    9.3310    8.7970  9683.5000    0.0020   73.9880   73.1670   72.7720    2.6130    3.4780    7.9500 -999.0000    0.2490    2.5410 -100.7890
  9684.0000    9.3630    8.7970  9684.0000   -0.0010   71.7500   75.0420   75.9920    2.7310    3.7450    6.8620 -999.0000    0.2470    2.5580  -96.3060
  9684.5000    9.3570    8.7970  9684.5000    0.0010   72.6520   75.8960   80.0120    2.9150    4.0330    6.1850 -999.0000    0.2440    2.5710  -91.1240
  9685.0000    9.3520    8.7970  9685.0000   -0.0020   74.2300   75.5060   84.4980    3.1800    4.3430    6.5040 -999.0000    0.2460    2.5400  -87.4840
  9685.5000    9.3460    8.7970  9685.5000    0.0030   75.0810   74.9800   89.6380    3.4680    4.6770    6.8090 -999.0000    0.2520    2.5330  -83.9730
  9686.0000    9.3380    8.7970  9686.0000    0.0080   73.5940   74.2430   87.9340    3.7820    5.0370    7.1290 -999.0000    0.2570    2.5220  -81.2600
  9686.5000    9.3300    8.7970  9686.5000    0.0130   72.4580   73.1980   85.1590    4.1260    5.4250    7.4640 -999.0000    0.2600    2.5160  -78.5110
  9687.0000    9.3230    8.7970  9687.0000    0.0130   71.2560   75.9590   82.3840    4.5000    5.8420    7.8430 -999.0000    0.2630    2.5200  -76.0380
  9687.5000    9.3150    8.7970  9687.5000    0.0050   72.2240   77.7660   80.7310    4.9080    6.2910    7.7260 -999.0000    0.2630    2.5080  -76.5560
  9688.0000    9.3070    8.7970  9688.0000    0.0190   73.2590   78.4210   79.3520    5.2480    6.5640    7.6000 -999.0000    0.2620    2.5250  -77.0410
  9688.5000    9.2990    8.7970  9688.5000    0.0170   74.2930   78.7050   82.0290    5.0040    6.3630    7.4930 -999.0000    0.2650    2.5330  -77.5250
  9689.0000    9.2590    8.7970  9689.0000    0.0240   74.8450   77.0200   85.6360    4.8150    6.2260    7.6780 -999.0000    0.2690    2.5380  -77.9240
  9689.5000    9.2040    8.7970  9689.5000    0.0310   73.3420   75.3470   87.2990    4.6320    6.0920    7.8450 -999.0000    0.2720    2.5330  -78.2890
  9690.0000    9.1490    8.7970  9690.0000    0.0340   74.4230   73.6720   82.9750    4.4560    5.9610    8.0160 -999.0000    0.2650    2.5190  -78.6540
  9690.5000    9.0940    8.7970  9690.5000    0.0230   75.4800   72.4230   79.7180    4.2150    5.8330    7.7810 -999.0000    0.2630    2.5070  -79.0220
  9691.0000    9.1370    8.7970  9691.0000    0.0100   74.1090   72.1170   76.4590    4.2340    5.6320    7.5330 -999.0000    0.2630    2.5330  -81.4130
  9691.5000    9.2220    8.7940  9691.5000    0.0030   72.7370   73.8060   74.2550    4.1560    5.4150    7.1910 -999.0000    0.2620    2.5540  -84.9600
  9692.0000    9.2460    8.7890  9692.0000    0.0100   71.2380   75.4900   72.8900    4.0990    5.2060    7.5190 -999.0000    0.2540    2.5680  -88.5060
  9692.5000    9.2470    8.7850  9692.5000    0.0200   69.7410   77.1580   75.8880    4.0430    5.0050    8.4750 -999.0000    0.2450    2.5550  -92.1350
  9693.0000    9.2360    8.7810  9693.0000    0.0450   68.2240   75.7230   79.5990    3.9880    4.7900    8.1930 -999.0000    0.2530    2.5480  -91.1640
  9693.5000    9.1470    8.7770  9693.5000    0.0370   70.1950   73.1390   77.7450    3.9330    4.9120    7.6230 -999.0000    0.2640    2.5520  -89.5450
  9694.0000    9.0590    8.7720  9694.0000    0.0220   72.2100   70.4970   74.7760    3.7990    5.0540    7.1930 -999.0000    0.2750    2.4690  -87.9300
  9694.5000    8.9710    8.7680  9694.5000    0.0170   74.4910   69.4250   71.8060    3.5510    5.2000    8.5130 -999.0000    0.2910    2.4240  -86.3460
  9695.0000    8.9080    8.7640  9695.0000    0.0210   77.7470   68.3700   68.8350    3.3180    5.3200    8.2490 -999.0000    0.3040    2.4060  -88.3720
  9695.5000    8.9110    8.7600  9695.5000    0.0240   79.8250   67.3120   65.8560    3.1010    4.7180    7.7310 -999.0000    0.3070    2.3960  -91.2180
  9696.0000    8.9130    8.7550  9696.0000    0.0300   79.9390   66.2740   63.2800    2.8990    4.2690    7.2470 -999.0000    0.3100    2.4170  -95.7880
  9696.5000    8.9160    8.7510  9696.5000    0.0430   79.2730   67.4460   66.5980    2.7090    3.8620    6.9330 -999.0000    0.3030    2.4540 -100.3660
  9697.0000    8.9180    8.7470  9697.0000    0.0360   78.6070   68.7050   68.2700    2.5690    3.4940    7.2050 -999.0000    0.2910    2.4490 -104.9460
  9697.5000    8.9210    8.7430  9697.5000    0.0510   78.2210   66.6970   66.0230    2.4500    3.3140    7.4190 -999.0000    0.2960    2.4400 -109.0950
  9698.0000    8.9240    8.7380  9698.0000    0.0590   79.0370   66.1350   65.7030    2.3370    3.1750    7.6400 -999.0000    0.3070    2.4610 -111.2830
  9698.5000    8.9270    8.7340  9698.5000    0.0290   78.1470   66.5920   69.7380    2.2290    3.0420    7.9510 -999.0000    0.3020    2.4540 -113.0780
  9699.0000    8.9840    8.7300  9699.0000    0.0080   76.1510   64.0350   71.2550    2.1250    2.9150    7.6530 -999.0000    0.2930    2.4680 -113.9570
