~Version Information Section
 VERS.      2.0         :CWLS LOG ASCII STANDARD - VERSION 2.0
 WRAP.      NO          :SINGLE LINE PER DEPTH STEP
 CREA.      8/24/2011 12:51:22
~Well Information Section
#MNEM.UNIT                      VALUE/NAME                 DESCRIPTION
#----.----     ----------------------------------   --------------------
 STRT .FT           1140.0000                         :START DEPTH
 STOP .FT          13950.0000                         :STOP DEPTH
 STEP .FT              0.5000                         :STEP VALUE
 NULL .             -999.0000                         :NULL VALUE
 SRVC .          SCH                                  :Service Company/Logging company
 DATE .          08/24/2011                           :LAS file Creation Date
 WELL .          PENOBSCOT L-30                       :Well Name
 COMP .          SHELL CANADA RESOURCES LIMITED       :Company
 FLD  .          Wildcat                              :Field
 STATE.          Nova Scotia Shelf                    :State
 COUNT.          Canada                               :Country
 LOC  .          44� 09' 43.558"N LAT|60� 04' 0   :Location
 LATI .          0                                    :Latitude/Northing
 LONG .          0                                    :Longitude/Easting
 PDAT .          RT                                   :Permanent Datum
 EPDAT.          0.0000                               :Elevation of Permanent Datum
 LGMEA.          RT                                   :Log Measured from
 APDAT.          98.0000                              :Elevation Above Permanent Datum
 KB   .          99.0000                              :KB Elevation
 GL   .          -451.0000                            :GL Elevation
 RWS  .          0                                    :Def_Rw
 WST  .          0                                    :Def_Rwt
 ERT  .          0.0000                               :RT Elevation
 CNTY .          NOVA SCOTIA SHELF                    :County
~Curve Information Section
#MNEM  .UNIT         CURVE DESCRIPTION
#----  .----         -------------------------
 DEPTH .FT           :1 Depth
 CALD  .IN           :2 Caliper    Caliper - Density
 CALS  .IN           :3 Caliper    Caliper - Sonic
 DEPT  .FT           :4 Depth
 DRHO  .G/CC         :5 Drho       Delta Rho
 DT    .US/F         :6 Sonic      Delta-T
 GRD   .GAPI         :7 GammaRay   Gamma Ray - Density
 GRS   .GAPI         :8 GammaRay   Gamma Ray - Sonic
 ILD   .OHMM         :9 DeepRes    Deep Induction Standard Processed Resistivity
 ILM   .OHMM         :10 MedRes     Medium Induction Standard Processed Resistivity
 LL8   .OHMM         :11 ShalRes    Latero-Log 8
 NPHILS.V/V          :12 Neutron    Neutron Porosity - Ls Mtx
 NPHISS.V/V          :13 Neutron    Neutron Porosity - Ss Mtx
 RHOB  .G/CC         :14 Density    Bulk Density
 SP    .MV           :15 SP         Spontaneous Potential
~Parameter Information Section
#MNEM.UNIT                      VALUE                       DESCRIPTION
#----.----     ----------------------------------   --------------------
~A  DEPTH     CALD      CALS      DEPT      DRHO       DT        GRD       GRS       ILD       ILM       LL8     NPHILS    NPHISS     RHOB       SP    
# ...
  5406.5000   11.9580   11.1720  5406.5000    0.0710  105.0280   48.3380   70.2110    1.1300    1.3920    1.9370 -999.0000    0.4210    2.3740  -78.7950
  5407.0000   12.1160   11.1180  5407.0000    0.0640  105.1820   46.2580   63.0080    1.0220    1.2240    1.9390 -999.0000    0.3860    2.3680  -90.0050
  5407.5000   12.2720   11.1200  5407.5000    0.0530  103.1790   44.7110   55.8030    1.0380    1.0950    1.7290 -999.0000    0.3520    2.3970 -105.2720
  5408.0000   12.2750   11.1230  5408.0000    0.0360   96.5610   45.7590   49.1920    1.0670    1.1630    1.4870 -999.0000    0.3170    2.4350 -115.0730
  5408.5000   12.1190   11.1260  5408.5000    0.0350   86.9880   47.5620   45.4290    1.0970    1.2420    1.6970 -999.0000    0.2850    2.4760 -121.3610
  5409.0000   11.9880   11.1290  5409.0000    0.0470   77.3630   51.1190   44.8590    1.1290    1.4240    3.3660 -999.0000    0.2600    2.4710 -123.3290
  5409.5000   12.0720   11.1320  5409.5000    0.0550   68.3360   54.8950   45.1380    1.1610    1.6320    5.2470 -999.0000    0.2410    2.4580 -124.1620
  5410.0000   12.2710   11.1350  5410.0000    0.0390   70.9010   60.6510   45.5520    1.2100    1.8420    6.2520 -999.0000    0.2620    2.4190 -123.1150
  5410.5000   12.5070   11.1380  5410.5000    0.0310   79.0290   66.3550   47.5850    1.1630    1.7780    8.7280 -999.0000    0.2860    2.3600 -122.4210
  5411.0000   12.3800   11.1410  5411.0000    0.0540   89.6020   71.8330   50.8620    1.0710    1.5260   10.6290 -999.0000    0.3270    2.3010 -123.1780
  5411.5000   12.1790   11.1440  5411.5000    0.0590   98.9290   74.4390   56.5020    0.9880    1.2430    3.8970 -999.0000    0.3730    2.2590 -123.9330
  5412.0000   12.1500   11.1490  5412.0000    0.0540  105.8670   76.9710   62.0910    0.9270    1.0120    1.9640 -999.0000    0.4030    2.2860 -124.5800
  5412.5000   12.2570   11.1720  5412.5000    0.0510  105.0750   79.0890   67.6500    0.8860    0.9380    1.4530 -999.0000    0.4080    2.3310 -121.5960
  5413.0000   12.3160   11.1940  5413.0000    0.0620  102.1140   80.1250   72.6060    0.8460    0.9580    1.6880 -999.0000    0.4010    2.3800 -117.6650
  5413.5000   12.3610   11.2170  5413.5000    0.0610   98.9620   81.1530   77.2140    0.8070    0.9910    2.0120 -999.0000    0.3960    2.4110 -108.5530
  5414.0000   12.4080   11.2050  5414.0000    0.0370   97.7230   81.8650   81.2130    0.7810    1.0310    2.2830 -999.0000    0.4080    2.4020  -99.4710
  5414.5000   12.2710   11.1680  5414.5000    0.0510   99.5210   82.4970   83.8780    0.8610    1.1430    2.1720 -999.0000    0.4280    2.3930  -93.0370
  5415.0000   12.1890   11.1310  5415.0000    0.0730  101.3730   83.1290   85.8470    0.9290    1.2660    2.0740 -999.0000    0.4470    2.4200  -89.1160
  5415.5000   12.3710   11.1640  5415.5000    0.1110  103.2220   83.7740   87.8230    1.0810    1.4030    2.2030 -999.0000    0.4670    2.4230  -90.0190
  5416.0000   12.5530   11.2330  5416.0000    0.1480  105.0720   82.6600   87.4810    1.2560    1.4680    2.3730 -999.0000    0.4790    2.4530  -90.9640
  5416.5000   12.7720   11.3020  5416.5000    0.1690  105.8950   80.0040   85.5930    1.4200    1.5280    2.5470 -999.0000    0.4830    2.4870  -88.3660
  5417.0000   12.5690   11.3720  5417.0000    0.1390  104.1120   77.3590   83.2260    1.4740    1.5920    2.3050 -999.0000    0.4870    2.4580  -82.7060
  5417.5000   12.3580   11.3000  5417.5000    0.0830  100.7570   76.1580   79.1310    1.5290    1.6580    2.0950 -999.0000    0.4730    2.4250  -76.8040
  5418.0000   12.2890   11.2180  5418.0000    0.1080   97.4070   77.4890   75.0330    1.5870    1.7260    1.9550 -999.0000    0.4470    2.4450  -76.2640
  5418.5000   12.2590   11.2090  5418.5000    0.1340   94.9150   80.1000   71.9320    1.6470    1.7980    2.3980 -999.0000    0.4210    2.4620  -78.8510
  5419.0000   12.2290   11.2260  5419.0000    0.1190   92.9290   83.3230   71.9330    1.7090    1.8720    2.8550 -999.0000    0.3960    2.4310  -81.8170
  5419.5000   12.1990   11.2260  5419.5000    0.0940   94.6020   86.5440   73.9290    1.7920    1.9490    2.7380 -999.0000    0.3750    2.4090  -82.3610
  5420.0000   12.1690   11.1970  5420.0000    0.0700   96.0890   89.0520   76.4860    1.6770    2.0280    2.6420 -999.0000    0.3780    2.4080  -81.3650
  5420.5000   12.1070   11.1690  5420.5000    0.0470   97.3820   88.1200   78.7840    1.5290    1.9110    3.0580 -999.0000    0.3800    2.3780  -82.5190
  5421.0000   12.0820   11.1400  5421.0000    0.0360   98.6750   85.4980   79.8580    1.3940    1.7480    2.7990 -999.0000    0.3830    2.3370  -84.5100
  5421.5000   12.1030   11.1170  5421.5000    0.0460   99.9680   82.7300   78.3780    1.2860    1.6050    2.4860 -999.0000    0.3860    2.3000  -88.6190
  5422.0000   12.1240   11.1170  5422.0000    0.0550   99.7860   85.4590   74.2350    1.2590    1.4740    2.2080 -999.0000    0.3890    2.3280  -97.9790
  5422.5000   12.1450   11.1170  5422.5000    0.0540   99.4270   88.1010   71.1450    1.2330    1.2970    1.9610 -999.0000    0.3830    2.3650 -106.1150
  5423.0000   12.1660   11.1170  5423.0000    0.0530   97.7700   88.9930   72.1040    1.2450    1.3400    1.8260 -999.0000    0.3700    2.3830 -108.0120
  5423.5000   12.2450   11.1170  5423.5000    0.0630   94.8910   90.2710   75.1990    1.2560    1.4350    2.2050 -999.0000    0.3790    2.4110  -97.9830
  5424.0000   12.3420   11.1230  5424.0000    0.0610   95.4080   91.7340   77.3880    1.2690    1.5360    2.5240 -999.0000    0.3930    2.3990  -92.3340
  5424.5000   12.4380   11.1840  5424.5000    0.0580   97.3430   93.1980   77.2560    1.3440    1.6440    2.7160 -999.0000    0.4070    2.3910  -89.9650
  5425.0000   12.5350   11.2440  5425.0000    0.0860  100.0740   91.9470   77.3430    1.4650    1.7590    2.9210 -999.0000    0.4200    2.4180  -88.2670
  5425.5000   12.6310   11.3040  5425.5000    0.0890  102.0900   88.8380   79.7110    1.5960    1.8830    2.7850 -999.0000    0.4340    2.4090  -83.6010
  5426.0000   12.4900   11.2940  5426.0000    0.0670  100.3740   85.5040   81.7160    1.7400    2.0180    2.5550 -999.0000    0.4450    2.3720  -78.5910
  5426.5000   12.3970   11.2010  5426.5000    0.0520   97.7800   81.0070   81.7860    1.9640    2.1710    2.2830 -999.0000    0.4180    2.3350  -77.1810
  5427.0000   12.3930   11.1080  5427.0000    0.0400   95.7550   76.5400   80.3550    1.7960    2.1200    2.3840 -999.0000    0.3950    2.3140  -81.5010
  5427.5000   12.3440   11.1140  5427.5000    0.0520   95.3280   72.0730   75.9960    1.5430    2.0200    2.6100 -999.0000    0.3760    2.2970  -90.2180
  5428.0000   12.1540   11.0770  5428.0000    0.0580   96.4380   67.6050   70.2710    1.2150    1.7450    3.2720 -999.0000    0.3730    2.2570  -98.9510
  5428.5000   12.0700   11.0100  5428.5000    0.0250   98.7530   64.0360   64.5600    0.9370    1.3760    2.9130 -999.0000    0.3710    2.1940 -107.6860
  5429.0000   12.0710   10.9910  5429.0000    0.0130  102.1980   62.0580   61.1430    0.7220    1.0850    2.3340 -999.0000    0.3790    2.1630 -116.4220
  5429.5000   12.0710   11.0200  5429.5000    0.0140  105.9810   60.0760   58.6800    0.5570    0.8550    2.0430 -999.0000    0.3930    2.1670 -125.2050
  5430.0000   12.0750   11.0480  5430.0000    0.0210  106.9510   60.9540   56.2160    0.4680    0.6960    1.7750 -999.0000    0.4050    2.1730 -132.5630
  5430.5000   12.0950   11.0760  5430.5000    0.0320  107.1990   62.6070   54.7480    0.4210    0.5870    1.2470 -999.0000    0.4080    2.1880 -133.9570
  5431.0000   12.1150   11.1040  5431.0000    0.0540  105.7570   66.8450   54.2260    0.3790    0.5380    1.0700 -999.0000    0.4110    2.2130 -134.9480
  5431.5000   12.1260   11.1330  5431.5000    0.0430  103.4510   71.7140   56.0250    0.3680    0.5230    1.0920 -999.0000    0.4060    2.2380 -133.6970
  5432.0000   12.1050   11.1300  5432.0000    0.0260  101.1450   76.5820   58.2510    0.3640    0.5770    1.1090 -999.0000    0.3880    2.2550 -131.2480
  5432.5000   12.0830   11.1210  5432.5000    0.0360   99.6450   80.5780   62.7870    0.3970    0.6360    1.3110 -999.0000    0.3950    2.2920 -126.4330
