~Version Information Section
 VERS.      2.0         :CWLS LOG ASCII STANDARD - VERSION 2.0
 WRAP.      NO          :SINGLE LINE PER DEPTH STEP
 CREA.      8/24/2011 12:51:22
~Well Information Section
#MNEM.UNIT                      VALUE/NAME                 DESCRIPTION
#----.----     ----------------------------------   --------------------
 STRT .FT           1140.0000                         :START DEPTH
 STOP .FT          13950.0000                         :STOP DEPTH
 STEP .FT              0.5000                         :STEP VALUE
 NULL .             -999.0000                         :NULL VALUE
 SRVC .          SCH                                  :Service Company/Logging company
 DATE .          08/24/2011                           :LAS file Creation Date
 WELL .          PENOBSCOT L-30                       :Well Name
 COMP .          SHELL CANADA RESOURCES LIMITED       :Company
 FLD  .          Wildcat                              :Field
 STATE.          Nova Scotia Shelf                    :State
 COUNT.          Canada                               :Country
 LOC  .          44� 09' 43.558"N LAT|60� 04' 0   :Location
 LATI .          0                                    :Latitude/Northing
 LONG .          0                                    :Longitude/Easting
 PDAT .          RT                                   :Permanent Datum
 EPDAT.          0.0000                               :Elevation of Permanent Datum
 LGMEA.          RT                                   :Log Measured from
 APDAT.          98.0000                              :Elevation Above Permanent Datum
 KB   .          99.0000                              :KB Elevation
 GL   .          -451.0000                            :GL Elevation
 RWS  .          0                                    :Def_Rw
 WST  .          0                                    :Def_Rwt
 ERT  .          0.0000                               :RT Elevation
 CNTY .          NOVA SCOTIA SHELF                    :County
~Curve Information Section
#MNEM  .UNIT         CURVE DESCRIPTION
#----  .----         -------------------------
 DEPTH .FT           :1 Depth
 CALD  .IN           :2 Caliper    Caliper - Density
 CALS  .IN           :3 Caliper    Caliper - Sonic
 DEPT  .FT           :4 Depth
 DRHO  .G/CC         :5 Drho       Delta Rho
 DT    .US/F         :6 Sonic      Delta-T
 GRD   .GAPI         :7 GammaRay   Gamma Ray - Density
 GRS   .GAPI         :8 GammaRay   Gamma Ray - Sonic
 ILD   .OHMM         :9 DeepRes    Deep Induction Standard Processed Resistivity
 ILM   .OHMM         :10 MedRes     Medium Induction Standard Processed Resistivity
 LL8   .OHMM         :11 ShalRes    Latero-Log 8
 NPHILS.V/V          :12 Neutron    Neutron Porosity - Ls Mtx
 NPHISS.V/V          :13 Neutron    Neutron Porosity - Ss Mtx
 RHOB  .G/CC         :14 Density    Bulk Density
 SP    .MV           :15 SP         Spontaneous Potential
~Parameter Information Section
#MNEM.UNIT                      VALUE                       DESCRIPTION
#----.----     ----------------------------------   --------------------
~A  DEPTH     CALD      CALS      DEPT      DRHO       DT        GRD       GRS       ILD       ILM       LL8     NPHILS    NPHISS     RHOB       SP    
# ...
 13913.0000    9.2960   12.5640 13913.0000    0.0320 -999.0000  108.3690  110.5120    6.8260    7.8650   10.6290    0.2390 -999.0000    2.6390  -72.5720
 13913.5000    9.1990   12.5580 13913.5000    0.0650 -999.0000  105.4450  105.5500    6.6700    7.4730    8.6170    0.2350 -999.0000    2.6630  -72.5960
 13914.0000    9.1010   12.5520 13914.0000    0.0780 -999.0000   99.2160   98.0910    6.5180    7.1860    7.7930    0.2260 -999.0000    2.6990  -72.7390
 13914.5000    9.1530   12.5460 13914.5000    0.0620 -999.0000   91.5430   81.6510    6.4340    6.9210    8.4770    0.2180 -999.0000    2.6840  -72.8810
 13915.0000    9.2100   12.5690 13915.0000    0.0740 -999.0000   94.2300   53.9350    6.4540    7.1170    9.0600    0.2050 -999.0000    2.6900  -73.0240
 13915.5000    9.1750   12.6310 13915.5000    0.0590 -999.0000   97.9990   25.4450    6.4630    7.3770    9.2790    0.1920 -999.0000    2.6600  -73.1670
 13916.0000    9.0950   12.6940 13916.0000    0.0580 -999.0000   98.3930 -999.0000    6.2890    7.2500    9.5700    0.1990 -999.0000    2.6740  -73.3090
 13916.5000    9.1770   12.8680 13916.5000    0.0620 -999.0000  100.0120 -999.0000    6.4810    7.1140    9.1360    0.2030 -999.0000    2.6650  -73.4530
 13917.0000    9.2790   13.0950 13917.0000    0.0690 -999.0000  102.3960 -999.0000    6.7090    7.3330    8.3450    0.2050 -999.0000    2.7080  -73.3830
 13917.5000    9.2770   13.0700 13917.5000    0.0770 -999.0000  100.6410 -999.0000    6.9450    7.5100    8.9500    0.2140 -999.0000    2.7010  -73.0840
 13918.0000    9.2640   12.9960 13918.0000    0.0850 -999.0000   97.0250 -999.0000    7.0700    7.6800   10.2950    0.2260 -999.0000    2.7230  -72.7870
 13918.5000    9.2510   12.9700 13918.5000    0.0700 -999.0000   98.7750 -999.0000    7.1470    7.8360    9.5140    0.2240 -999.0000    2.6930  -72.4890
 13919.0000    9.2280   13.0190 13919.0000    0.0850 -999.0000  102.0760 -999.0000    7.2250    7.9490    8.6160    0.2190 -999.0000    2.6480  -72.1970
 13919.5000    8.8020   13.0680 13919.5000    0.1070 -999.0000  102.1710 -999.0000    7.3030    8.0530    9.0530    0.2180 -999.0000    2.6180  -72.9080
 13920.0000    8.9920   13.1010 13920.0000    0.1030 -999.0000  105.0800 -999.0000    7.3830    8.1590    9.6850    0.2200 -999.0000    2.6080  -73.6530
 13920.5000    9.0300 -999.0000 13920.5000    0.0990 -999.0000  106.6350 -999.0000    7.4630    8.2690   10.3890    0.2220 -999.0000    2.6140  -73.9230
 13921.0000    9.0170 -999.0000 13921.0000    0.0820 -999.0000  100.4400 -999.0000    7.5440    8.2100    9.7650    0.2160 -999.0000    2.6190  -73.8330
 13921.5000    9.0480 -999.0000 13921.5000    0.0660 -999.0000   97.2670 -999.0000    7.6520    8.1490    9.1450    0.2040 -999.0000    2.6310  -73.7440
 13922.0000    9.1650 -999.0000 13922.0000    0.0770 -999.0000   99.9200 -999.0000    7.3670    8.0890   10.8720    0.1930 -999.0000    2.6490  -73.6550
 13922.5000    9.2830 -999.0000 13922.5000    0.0710 -999.0000   97.6980 -999.0000    6.9690    7.9030   12.5220    0.1890 -999.0000    2.6590  -73.5670
 13923.0000    9.4000 -999.0000 13923.0000    0.0650 -999.0000   85.8020 -999.0000    6.5920    7.4370   10.3700    0.1960 -999.0000    2.6460  -73.4780
 13923.5000    9.5180 -999.0000 13923.5000    0.0720 -999.0000   40.1310 -999.0000    6.3460    7.1790    8.8550    0.2040 -999.0000    2.6570  -73.3870
 13924.0000    9.4720 -999.0000 13924.0000    0.0830 -999.0000 -999.0000 -999.0000    6.5790    7.2540    7.4800    0.2100 -999.0000    2.6510  -73.3980
 13924.5000    9.3720 -999.0000 13924.5000    0.0990 -999.0000 -999.0000 -999.0000    6.8270    7.3090    8.8350    0.1910 -999.0000    2.6850  -73.4240
 13925.0000    9.2720 -999.0000 13925.0000    0.0650 -999.0000 -999.0000 -999.0000    6.6730    7.3440   10.2420    0.1820 -999.0000    2.6530  -73.4500
 13925.5000    9.1710 -999.0000 13925.5000    0.0290 -999.0000 -999.0000 -999.0000    6.4410    7.0660   10.7990    0.1920 -999.0000    2.6410  -73.4750
 13926.0000    9.1660 -999.0000 13926.0000    0.0320 -999.0000 -999.0000 -999.0000    6.2160    6.8670   11.6450    0.1870 -999.0000    2.6130  -73.5010
 13926.5000    9.2340 -999.0000 13926.5000    0.0440 -999.0000 -999.0000 -999.0000    5.9540    6.6120   10.3380    0.1910 -999.0000    2.6220  -73.5200
 13927.0000    9.2230 -999.0000 13927.0000    0.0520 -999.0000 -999.0000 -999.0000    6.0900    6.7500    8.4010    0.1980 -999.0000    2.6340  -73.3270
 13927.5000    9.1280 -999.0000 13927.5000    0.0450 -999.0000 -999.0000 -999.0000    6.2690    6.9570    7.4150    0.2050 -999.0000    2.6210  -73.1370
 13928.0000    9.1160 -999.0000 13928.0000    0.0580 -999.0000 -999.0000 -999.0000    6.4530    7.2110    8.8280    0.2150 -999.0000    2.6690  -72.9470
 13928.5000    9.1640 -999.0000 13928.5000    0.0780 -999.0000 -999.0000 -999.0000    6.5820    7.1580   10.0070    0.2100 -999.0000    2.6930  -72.7560
 13929.0000    9.1700 -999.0000 13929.0000    0.0580 -999.0000 -999.0000 -999.0000    6.3170    7.0920   12.0200    0.2010 -999.0000    2.6720  -72.5660
 13929.5000    9.1340 -999.0000 13929.5000    0.0740 -999.0000 -999.0000 -999.0000    6.4340    7.0490   11.2810    0.1920 -999.0000    2.6900  -72.3760
 13930.0000    9.0970 -999.0000 13930.0000    0.0780 -999.0000 -999.0000 -999.0000    6.5770    7.2430    9.9970    0.1870 -999.0000    2.6700  -72.1860
 13930.5000    9.0600 -999.0000 13930.5000    0.0670 -999.0000 -999.0000 -999.0000    6.7220    7.3920    9.1430    0.1970 -999.0000    2.6570  -71.9950
 13931.0000    9.0520 -999.0000 13931.0000    0.0710 -999.0000 -999.0000 -999.0000    6.9210    7.5480    9.4370    0.2020 -999.0000    2.6460  -71.9540
 13931.5000    9.0840 -999.0000 13931.5000    0.0630 -999.0000 -999.0000 -999.0000    6.6880    7.3480    9.6770    0.1640 -999.0000    2.6350  -72.1140
 13932.0000    9.1150 -999.0000 13932.0000    0.0540 -999.0000 -999.0000 -999.0000    6.3560    7.0540    9.9230    0.1500 -999.0000    2.6230  -72.2730
 13932.5000    9.1470 -999.0000 13932.5000    0.0630 -999.0000 -999.0000 -999.0000    6.0400    6.6760   10.2010 -999.0000 -999.0000    2.6140  -72.3340
 13933.0000    9.1790 -999.0000 13933.0000    0.0730 -999.0000 -999.0000 -999.0000    5.7410    6.3180    8.8870 -999.0000 -999.0000    2.6180  -72.3320
 13933.5000    9.2110 -999.0000 13933.5000    0.0790 -999.0000 -999.0000 -999.0000    5.4560    5.9790    7.6250 -999.0000 -999.0000    2.6500  -72.6690
 13934.0000    9.2370 -999.0000 13934.0000    0.0910 -999.0000 -999.0000 -999.0000    5.1850    5.9450    6.6520 -999.0000 -999.0000    2.6810  -73.0790
 13934.5000    9.1690 -999.0000 13934.5000    0.1130 -999.0000 -999.0000 -999.0000    4.9370    5.9340    5.9340 -999.0000 -999.0000    2.7220  -73.4930
 13935.0000    9.1020 -999.0000 13935.0000    0.1170 -999.0000 -999.0000 -999.0000    4.9740    5.9220    5.2630 -999.0000 -999.0000    2.7330  -73.4310
 13935.5000    9.0390 -999.0000 13935.5000    0.1060 -999.0000 -999.0000 -999.0000    5.0100    5.9050    5.8630 -999.0000 -999.0000    2.6850  -73.3270
 13936.0000    9.0520 -999.0000 13936.0000    0.0900 -999.0000 -999.0000 -999.0000    5.0460    5.8890    6.5670 -999.0000 -999.0000    2.6440  -73.2230
 13936.5000    9.0640 -999.0000 13936.5000    0.1200 -999.0000 -999.0000 -999.0000    5.0820    5.8720    7.3560 -999.0000 -999.0000    2.6630  -73.1190
 13937.0000    9.0760 -999.0000 13937.0000    0.1570 -999.0000 -999.0000 -999.0000    5.1190    5.8560    8.1720 -999.0000 -999.0000    2.6870  -73.1460
 13937.5000    9.0890 -999.0000 13937.5000    0.1480 -999.0000 -999.0000 -999.0000    5.2240    5.8460    8.3450 -999.0000 -999.0000    2.6610  -73.2820
 13938.0000    9.1010 -999.0000 13938.0000    0.1250 -999.0000 -999.0000 -999.0000    5.5050    6.1150    8.4960 -999.0000 -999.0000    2.6350  -73.4170
 13938.5000    9.0820 -999.0000 13938.5000    0.0960 -999.0000 -999.0000 -999.0000    5.8010    6.3160    6.8580 -999.0000 -999.0000    2.6080  -73.4730
 13939.0000    9.0100 -999.0000 13939.0000    0.1020 -999.0000 -999.0000 -999.0000    6.0070    6.5230    7.8880 -999.0000 -999.0000    2.6210  -73.1980
