~Version Information Section
 VERS.      2.0         :CWLS LOG ASCII STANDARD - VERSION 2.0
 WRAP.      NO          :SINGLE LINE PER DEPTH STEP
 CREA.      8/24/2011 12:51:22
~Well Information Section
#MNEM.UNIT                      VALUE/NAME                 DESCRIPTION
#----.----     ----------------------------------   --------------------
 STRT .FT           1140.0000                         :START DEPTH
 STOP .FT          13950.0000                         :STOP DEPTH
 STEP .FT              0.5000                         :STEP VALUE
 NULL .             -999.0000                         :NULL VALUE
 SRVC .          SCH                                  :Service Company/Logging company
 DATE .          08/24/2011                           :LAS file Creation Date
 WELL .          PENOBSCOT L-30                       :Well Name
 COMP .          SHELL CANADA RESOURCES LIMITED       :Company
 FLD  .          Wildcat                              :Field
 STATE.          Nova Scotia Shelf                    :State
 COUNT.          Canada                               :Country
 LOC  .          44� 09' 43.558"N LAT|60� 04' 0   :Location
 LATI .          0                                    :Latitude/Northing
 LONG .          0                                    :Longitude/Easting
 PDAT .          RT                                   :Permanent Datum
 EPDAT.          0.0000                               :Elevation of Permanent Datum
 LGMEA.          RT                                   :Log Measured from
 APDAT.          98.0000                              :Elevation Above Permanent Datum
 KB   .          99.0000                              :KB Elevation
 GL   .          -451.0000                            :GL Elevation
 RWS  .          0                                    :Def_Rw
 WST  .          0                                    :Def_Rwt
 ERT  .          0.0000                               :RT Elevation
 CNTY .          NOVA SCOTIA SHELF                    :County
~Curve Information Section
#MNEM  .UNIT         CURVE DESCRIPTION
#----  .----         -------------------------
 DEPTH .FT           :1 Depth
 CALD  .IN           :2 Caliper    Caliper - Density
 CALS  .IN           :3 Caliper    Caliper - Sonic
 DEPT  .FT           :4 Depth
 DRHO  .G/CC         :5 Drho       Delta Rho
 DT    .US/F         :6 Sonic      Delta-T
 GRD   .GAPI         :7 GammaRay   Gamma Ray - Density
 GRS   .GAPI         :8 GammaRay   Gamma Ray - Sonic
 ILD   .OHMM         :9 DeepRes    Deep Induction Standard Processed Resistivity
 ILM   .OHMM         :10 MedRes     Medium Induction Standard Processed Resistivity
 LL8   .OHMM         :11 ShalRes    Latero-Log 8
 NPHILS.V/V          :12 Neutron    Neutron Porosity - Ls Mtx
 NPHISS.V/V          :13 Neutron    Neutron Porosity - Ss Mtx
 RHOB  .G/CC         :14 Density    Bulk Density
 SP    .MV           :15 SP         Spontaneous Potential
~Parameter Information Section
#MNEM.UNIT                      VALUE                       DESCRIPTION
#----.----     ----------------------------------   --------------------
~A  DEPTH     CALD      CALS      DEPT      DRHO       DT        GRD       GRS       ILD       ILM       LL8     NPHILS    NPHISS     RHOB       SP    
# ...
  2014.5000 -999.0000   11.9070  2014.5000 -999.0000  143.9900 -999.0000   63.6530    1.7460    2.0180    1.8850 -999.0000 -999.0000 -999.0000  -73.2490
  2015.0000 -999.0000   11.8810  2015.0000 -999.0000  145.3480 -999.0000   63.0230    1.7650    2.0430    1.9030 -999.0000 -999.0000 -999.0000  -73.3690
  2015.5000 -999.0000   11.9720  2015.5000 -999.0000  146.3330 -999.0000   61.4440    1.7850    2.0680    1.9220 -999.0000 -999.0000 -999.0000  -73.3210
  2016.0000 -999.0000   12.0310  2016.0000 -999.0000  145.8950 -999.0000   61.6060    1.8050    2.0930    1.9410 -999.0000 -999.0000 -999.0000  -71.6250
  2016.5000 -999.0000   11.9650  2016.5000 -999.0000  144.6610 -999.0000   65.6880    1.8260    2.1180    1.9600 -999.0000 -999.0000 -999.0000  -70.9100
  2017.0000 -999.0000   11.8980  2017.0000 -999.0000  143.7180 -999.0000   69.8130    1.8460    2.1440    1.9800 -999.0000 -999.0000 -999.0000  -70.2660
  2017.5000 -999.0000   11.9580  2017.5000 -999.0000  142.8770 -999.0000   70.0030    1.8670    2.1810    2.0000 -999.0000 -999.0000 -999.0000  -70.2120
  2018.0000 -999.0000   12.0280  2018.0000 -999.0000  142.0350 -999.0000   69.6260    1.8850    2.1630    1.9890 -999.0000 -999.0000 -999.0000  -70.8460
  2018.5000 -999.0000   12.0980  2018.5000 -999.0000  141.1930 -999.0000   71.0580    1.8700    2.1420    1.9780 -999.0000 -999.0000 -999.0000  -71.4760
  2019.0000 -999.0000   12.1670  2019.0000 -999.0000  141.8850 -999.0000   72.4600    1.8580    2.1220    1.9670 -999.0000 -999.0000 -999.0000  -71.6690
  2019.5000 -999.0000   12.2370  2019.5000 -999.0000  144.8950 -999.0000   72.6240    1.8450    2.1020    1.9560 -999.0000 -999.0000 -999.0000  -71.7440
  2020.0000 -999.0000   12.1760  2020.0000 -999.0000  148.4600 -999.0000   70.6000    1.8330    2.0810    1.9460 -999.0000 -999.0000 -999.0000  -71.7520
  2020.5000 -999.0000   12.1360  2020.5000 -999.0000  151.5600 -999.0000   68.5690    1.8210    2.0610    1.9350 -999.0000 -999.0000 -999.0000  -71.1490
  2021.0000 -999.0000   12.1940  2021.0000 -999.0000  152.3950 -999.0000   66.8240    1.8090    2.0460    1.9240 -999.0000 -999.0000 -999.0000  -70.5530
  2021.5000 -999.0000   12.2510  2021.5000 -999.0000  149.3550 -999.0000   65.3840    1.8150    2.0480    1.9110 -999.0000 -999.0000 -999.0000  -69.9580
  2022.0000 -999.0000   12.1330  2022.0000 -999.0000  146.2500 -999.0000   64.4140    1.8210    2.0490    1.9150 -999.0000 -999.0000 -999.0000  -69.3540
  2022.5000 -999.0000   12.0130  2022.5000 -999.0000  143.5900 -999.0000   65.3710    1.8270    2.0510    1.9200 -999.0000 -999.0000 -999.0000  -69.9650
  2023.0000 -999.0000   11.8920  2023.0000 -999.0000  142.6160 -999.0000   66.3290    1.8330    2.0520    1.9260 -999.0000 -999.0000 -999.0000  -70.0460
  2023.5000 -999.0000   11.7760  2023.5000 -999.0000  142.1720 -999.0000   66.0260    1.8380    2.0540    1.9310 -999.0000 -999.0000 -999.0000  -70.0980
  2024.0000 -999.0000   11.7790  2024.0000 -999.0000  142.8390 -999.0000   64.5650    1.8440    2.0550    1.9370 -999.0000 -999.0000 -999.0000  -70.9030
  2024.5000 -999.0000   11.7820  2024.5000 -999.0000  142.8100 -999.0000   63.0950    1.8500    2.0630    1.9420 -999.0000 -999.0000 -999.0000  -71.6900
  2025.0000 -999.0000   11.8200  2025.0000 -999.0000  142.8830 -999.0000   64.1550    1.8560    2.0730    1.9480 -999.0000 -999.0000 -999.0000  -71.1970
  2025.5000 -999.0000   11.9000  2025.5000 -999.0000  143.6070 -999.0000   65.6680    1.8620    2.0830    1.9530 -999.0000 -999.0000 -999.0000  -70.6780
  2026.0000 -999.0000   11.9170  2026.0000 -999.0000  144.2640 -999.0000   67.0420    1.8680    2.0940    1.9590 -999.0000 -999.0000 -999.0000  -70.8020
  2026.5000 -999.0000   11.8860  2026.5000 -999.0000  144.7310 -999.0000   66.2140    1.8520    2.1040    1.9640 -999.0000 -999.0000 -999.0000  -72.2950
  2027.0000 -999.0000   11.8560  2027.0000 -999.0000  146.1360 -999.0000   65.4060    1.8380    2.1130    1.9500 -999.0000 -999.0000 -999.0000  -73.1140
  2027.5000 -999.0000   11.9200  2027.5000 -999.0000  147.8120 -999.0000   64.4450    1.8240    2.0900    1.9370 -999.0000 -999.0000 -999.0000  -73.4470
  2028.0000 -999.0000   11.9870  2028.0000 -999.0000  149.1920 -999.0000   63.1050    1.8100    2.0680    1.9250 -999.0000 -999.0000 -999.0000  -72.1940
  2028.5000 -999.0000   12.0540  2028.5000 -999.0000  150.0500 -999.0000   61.7650    1.7960    2.0470    1.9130 -999.0000 -999.0000 -999.0000  -71.4700
  2029.0000 -999.0000   12.1210  2029.0000 -999.0000  148.2290 -999.0000   61.9970    1.7820    2.0280    1.9010 -999.0000 -999.0000 -999.0000  -71.5670
  2029.5000 -999.0000   12.1480  2029.5000 -999.0000  146.7160 -999.0000   63.2440    1.7680    2.0380    1.8930 -999.0000 -999.0000 -999.0000  -70.8960
  2030.0000 -999.0000   12.1390  2030.0000 -999.0000  145.2030 -999.0000   63.4740    1.7550    2.0470    1.8920 -999.0000 -999.0000 -999.0000  -70.2300
  2030.5000 -999.0000   11.9150  2030.5000 -999.0000  143.1480 -999.0000   61.6550    1.7410    2.0560    1.8920 -999.0000 -999.0000 -999.0000  -69.5620
  2031.0000 -999.0000   11.6940  2031.0000 -999.0000  143.8350 -999.0000   61.1780    1.7280    2.0650    1.8910 -999.0000 -999.0000 -999.0000  -69.3180
  2031.5000 -999.0000   11.4870  2031.5000 -999.0000  145.6570 -999.0000   62.4040    1.7150    2.0370    1.8900 -999.0000 -999.0000 -999.0000  -70.7420
  2032.0000 -999.0000   11.5700  2032.0000 -999.0000  147.5210 -999.0000   62.7770    1.7050    2.0000    1.8890 -999.0000 -999.0000 -999.0000  -71.0540
  2032.5000 -999.0000   11.6560  2032.5000 -999.0000  149.2030 -999.0000   61.6470    1.7280    2.0030    1.8890 -999.0000 -999.0000 -999.0000  -70.3470
  2033.0000 -999.0000   11.8110  2033.0000 -999.0000  148.4520 -999.0000   61.5760    1.7480    2.0090    1.8880 -999.0000 -999.0000 -999.0000  -69.6430
  2033.5000 -999.0000   11.9670  2033.5000 -999.0000  148.4620 -999.0000   63.2640    1.7680    2.0140    1.8870 -999.0000 -999.0000 -999.0000  -69.7220
  2034.0000 -999.0000   12.1220  2034.0000 -999.0000  148.0950 -999.0000   64.9960    1.7880    2.0200    1.8860 -999.0000 -999.0000 -999.0000  -70.4500
  2034.5000 -999.0000   12.1680  2034.5000 -999.0000  147.3910 -999.0000   62.9870    1.8010    2.0280    1.8860 -999.0000 -999.0000 -999.0000  -70.2840
  2035.0000 -999.0000   12.1340  2035.0000 -999.0000  146.6870 -999.0000   60.5960    1.7710    2.0190    1.8850 -999.0000 -999.0000 -999.0000  -70.0740
  2035.5000 -999.0000   11.3930  2035.5000 -999.0000  145.1390 -999.0000   61.1330    1.7500    2.0060    1.8720 -999.0000 -999.0000 -999.0000  -70.9500
  2036.0000 -999.0000   11.9620  2036.0000 -999.0000  146.7220 -999.0000   62.8600    1.7290    1.9930    1.8560 -999.0000 -999.0000 -999.0000  -71.8270
  2036.5000 -999.0000   12.3720  2036.5000 -999.0000  148.6590 -999.0000   62.9020    1.7080    1.9800    1.8400 -999.0000 -999.0000 -999.0000  -72.0670
  2037.0000 -999.0000   12.4600  2037.0000 -999.0000  151.0920 -999.0000   62.3090    1.6870    1.9670    1.8240 -999.0000 -999.0000 -999.0000  -72.2430
  2037.5000 -999.0000   12.5480  2037.5000 -999.0000  149.6080 -999.0000   61.7080    1.6670    1.9460    1.8090 -999.0000 -999.0000 -999.0000  -72.4250
  2038.0000 -999.0000   12.5400  2038.0000 -999.0000  147.5940 -999.0000   62.1320    1.6440    1.9580    1.8220 -999.0000 -999.0000 -999.0000  -71.7880
  2038.5000 -999.0000   12.5270  2038.5000 -999.0000  145.9720 -999.0000   63.7810    1.6600    1.9720    1.8360 -999.0000 -999.0000 -999.0000  -70.6580
  2039.0000 -999.0000   12.5130  2039.0000 -999.0000  144.5410 -999.0000   64.7540    1.6790    1.9860    1.8490 -999.0000 -999.0000 -999.0000  -71.0720
  2039.5000 -999.0000   12.5140  2039.5000 -999.0000  144.0500 -999.0000   63.9530    1.6990    1.9990    1.8630 -999.0000 -999.0000 -999.0000  -70.7000
  2040.0000 -999.0000   12.5820  2040.0000 -999.0000  144.5860 -999.0000   65.0320    1.7190    2.0130    1.8760 -999.0000 -999.0000 -999.0000  -70.2940
  2040.5000 -999.0000   12.6320  2040.5000 -999.0000  145.1220 -999.0000   66.5690    1.7390    2.0280    1.8900 -999.0000 -999.0000 -999.0000  -70.9100
