~Version Information Section
 VERS.      2.0         :CWLS LOG ASCII STANDARD - VERSION 2.0
 WRAP.      NO          :SINGLE LINE PER DEPTH STEP
 CREA.      8/24/2011 12:51:22
~Well Information Section
#MNEM.UNIT                      VALUE/NAME                 DESCRIPTION
#----.----     ----------------------------------   --------------------
 STRT .FT           1140.0000                         :START DEPTH
 STOP .FT          13950.0000                         :STOP DEPTH
 STEP .FT              0.5000                         :STEP VALUE
 NULL .             -999.0000                         :NULL VALUE
 SRVC .          SCH                                  :Service Company/Logging company
 DATE .          08/24/2011                           :LAS file Creation Date
 WELL .          PENOBSCOT L-30                       :Well Name
 COMP .          SHELL CANADA RESOURCES LIMITED       :Company
 FLD  .          Wildcat                              :Field
 STATE.          Nova Scotia Shelf                    :State
 COUNT.          Canada                               :Country
 LOC  .          44� 09' 43.558"N LAT|60� 04' 0   :Location
 LATI .          0                                    :Latitude/Northing
 LONG .          0                                    :Longitude/Easting
 PDAT .          RT                                   :Permanent Datum
 EPDAT.          0.0000                               :Elevation of Permanent Datum
 LGMEA.          RT                                   :Log Measured from
 APDAT.          98.0000                              :Elevation Above Permanent Datum
 KB   .          99.0000                              :KB Elevation
 GL   .          -451.0000                            :GL Elevation
 RWS  .          0                                    :Def_Rw
 WST  .          0                                    :Def_Rwt
 ERT  .          0.0000                               :RT Elevation
 CNTY .          NOVA SCOTIA SHELF                    :County
~Curve Information Section
#MNEM  .UNIT         CURVE DESCRIPTION
#----  .----         -------------------------
 DEPTH .FT           :1 Depth
 CALD  .IN           :2 Caliper    Caliper - Density
 CALS  .IN           :3 Caliper    Caliper - Sonic
 DEPT  .FT           :4 Depth
 DRHO  .G/CC         :5 Drho       Delta Rho
 DT    .US/F         :6 Sonic      Delta-T
 GRD   .GAPI         :7 GammaRay   Gamma Ray - Density
 GRS   .GAPI         :8 GammaRay   Gamma Ray - Sonic
 ILD   .OHMM         :9 DeepRes    Deep Induction Standard Processed Resistivity
 ILM   .OHMM         :10 MedRes     Medium Induction Standard Processed Resistivity
 LL8   .OHMM         :11 ShalRes    Latero-Log 8
 NPHILS.V/V          :12 Neutron    Neutron Porosity - Ls Mtx
 NPHISS.V/V          :13 Neutron    Neutron Porosity - Ss Mtx
 RHOB  .G/CC         :14 Density    Bulk Density
 SP    .MV           :15 SP         Spontaneous Potential
~Parameter Information Section
#MNEM.UNIT                      VALUE                       DESCRIPTION
#----.----     ----------------------------------   --------------------
~A  DEPTH     CALD      CALS      DEPT      DRHO       DT        GRD       GRS       ILD       ILM       LL8     NPHILS    NPHISS     RHOB       SP    
# ...
  1166.5000 -999.0000   13.1360  1166.5000 -999.0000  139.8760 -999.0000   52.4040    1.8040    2.0910    1.9020 -999.0000 -999.0000 -999.0000  -79.9310
  1167.0000 -999.0000   12.9830  1167.0000 -999.0000  133.1730 -999.0000   50.5400    1.8280    2.1330    1.9540 -999.0000 -999.0000 -999.0000  -80.6040
  1167.5000 -999.0000   12.8470  1167.5000 -999.0000  132.0370 -999.0000   49.1590    1.8520    2.1920    2.0320 -999.0000 -999.0000 -999.0000  -79.8610
  1168.0000 -999.0000   12.9790  1168.0000 -999.0000  124.7310 -999.0000   50.4440    1.8770    2.2530    2.1130 -999.0000 -999.0000 -999.0000  -79.0890
  1168.5000 -999.0000   12.9950  1168.5000 -999.0000  114.4410 -999.0000   50.3720    1.9020    2.2880    2.1210 -999.0000 -999.0000 -999.0000  -78.3190
  1169.0000 -999.0000   12.8170  1169.0000 -999.0000  114.9420 -999.0000   51.2480    1.9270    2.2980    2.1290 -999.0000 -999.0000 -999.0000  -77.5480
  1169.5000 -999.0000   12.6390  1169.5000 -999.0000  116.8430 -999.0000   53.2090    1.9530    2.3070    2.1370 -999.0000 -999.0000 -999.0000  -77.3180
  1170.0000 -999.0000   12.5290  1170.0000 -999.0000  120.9500 -999.0000   55.1750    1.9820    2.3170    2.1460 -999.0000 -999.0000 -999.0000  -77.2710
  1170.5000 -999.0000   12.8140  1170.5000 -999.0000  122.2990 -999.0000   55.6290    1.9630    2.3250    2.1520 -999.0000 -999.0000 -999.0000  -77.5600
  1171.0000 -999.0000   13.0050  1171.0000 -999.0000  117.1660 -999.0000   54.5290    1.9410    2.2810    2.1100 -999.0000 -999.0000 -999.0000  -78.0080
  1171.5000 -999.0000   13.0230  1171.5000 -999.0000  110.9780 -999.0000   53.4400    1.9200    2.2510    2.0790 -999.0000 -999.0000 -999.0000  -77.6700
  1172.0000 -999.0000   12.7720  1172.0000 -999.0000  113.3890 -999.0000   53.9830    1.8990    2.2440    2.0480 -999.0000 -999.0000 -999.0000  -76.9900
  1172.5000 -999.0000   12.5220  1172.5000 -999.0000  106.1310 -999.0000   55.5850    1.8850    2.2370    2.0090 -999.0000 -999.0000 -999.0000  -76.3040
  1173.0000 -999.0000   12.7190  1173.0000 -999.0000  104.9260 -999.0000   55.1640    1.8950    2.2300    2.0150 -999.0000 -999.0000 -999.0000  -77.0020
  1173.5000 -999.0000   13.0240  1173.5000 -999.0000  104.8890 -999.0000   54.3160    1.9020    2.2230    2.0240 -999.0000 -999.0000 -999.0000  -78.6290
  1174.0000 -999.0000   12.8920  1174.0000 -999.0000  105.4380 -999.0000   53.4720    1.9090    2.2160    2.0320 -999.0000 -999.0000 -999.0000  -78.0030
  1174.5000 -999.0000   12.6290  1174.5000 -999.0000  105.5450 -999.0000   53.9750    1.9170    2.2090    2.0400 -999.0000 -999.0000 -999.0000  -78.3310
  1175.0000 -999.0000   12.3650  1175.0000 -999.0000  105.3380 -999.0000   55.2430    1.9240    2.2030    2.0490 -999.0000 -999.0000 -999.0000  -78.1960
  1175.5000 -999.0000   12.2610  1175.5000 -999.0000  105.7410 -999.0000   57.2740    1.9320    2.1960    2.0570 -999.0000 -999.0000 -999.0000  -78.0080
  1176.0000 -999.0000   12.3480  1176.0000 -999.0000  105.9950 -999.0000   59.5570    1.9390    2.1890    2.0650 -999.0000 -999.0000 -999.0000  -79.4530
  1176.5000 -999.0000   12.4340  1176.5000 -999.0000  105.7800 -999.0000   61.9050    1.9460    2.1820    2.0740 -999.0000 -999.0000 -999.0000  -80.1770
  1177.0000 -999.0000   12.5000  1177.0000 -999.0000  105.6850 -999.0000   59.5810    1.9060    2.1790    2.0620 -999.0000 -999.0000 -999.0000  -80.2780
  1177.5000 -999.0000   12.3050  1177.5000 -999.0000  105.9800 -999.0000   56.6250    1.8720    2.1770    2.0500 -999.0000 -999.0000 -999.0000  -80.3800
  1178.0000 -999.0000   12.3900  1178.0000 -999.0000  106.2760 -999.0000   54.1340    1.8340    2.1740    2.0370 -999.0000 -999.0000 -999.0000  -80.9980
  1178.5000 -999.0000   12.5470  1178.5000 -999.0000  106.5710 -999.0000   52.7720    1.8390    2.1720    2.0240 -999.0000 -999.0000 -999.0000  -81.9970
  1179.0000 -999.0000   12.3440  1179.0000 -999.0000  106.5390 -999.0000   51.4180    1.8450    2.1690    2.0120 -999.0000 -999.0000 -999.0000  -81.7340
  1179.5000 -999.0000   12.1090  1179.5000 -999.0000  105.9460 -999.0000   50.1260    1.8510    2.1670    1.9990 -999.0000 -999.0000 -999.0000  -80.9080
  1180.0000 -999.0000   12.2400  1180.0000 -999.0000  105.3520 -999.0000   48.9750    1.8580    2.1640    1.9870 -999.0000 -999.0000 -999.0000  -80.0810
  1180.5000 -999.0000   12.2300  1180.5000 -999.0000  104.7590 -999.0000   49.3120    1.8640    2.1620    1.9730 -999.0000 -999.0000 -999.0000  -79.4570
  1181.0000 -999.0000   12.2750  1181.0000 -999.0000  105.0900 -999.0000   50.5960    1.8680    2.1590    1.9760 -999.0000 -999.0000 -999.0000  -79.2270
  1181.5000 -999.0000   12.5040  1181.5000 -999.0000  104.4720 -999.0000   51.8990    1.8640    2.1550    1.9800 -999.0000 -999.0000 -999.0000  -78.9970
  1182.0000 -999.0000   12.5900  1182.0000 -999.0000  104.3570 -999.0000   50.6620    1.8620    2.1510    1.9840 -999.0000 -999.0000 -999.0000  -78.7600
  1182.5000 -999.0000   12.3670  1182.5000 -999.0000  105.1400 -999.0000   49.3990    1.8590    2.1470    1.9880 -999.0000 -999.0000 -999.0000  -79.2160
  1183.0000 -999.0000   12.4020  1183.0000 -999.0000  105.0140 -999.0000   48.4450    1.8800    2.1420    1.9980 -999.0000 -999.0000 -999.0000  -79.7570
  1183.5000 -999.0000   12.4540  1183.5000 -999.0000  104.7110 -999.0000   47.4850    1.9040    2.1800    2.0320 -999.0000 -999.0000 -999.0000  -80.0800
  1184.0000 -999.0000   12.5690  1184.0000 -999.0000   97.6510 -999.0000   46.6320    1.9280    2.2580    2.0670 -999.0000 -999.0000 -999.0000  -78.5880
  1184.5000 -999.0000   12.7610  1184.5000 -999.0000  105.0170 -999.0000   47.6700    1.9530    2.3380    2.1020 -999.0000 -999.0000 -999.0000  -77.1240
  1185.0000 -999.0000   12.8160  1185.0000 -999.0000  107.8510 -999.0000   48.6960    1.9780    2.4220    2.1450 -999.0000 -999.0000 -999.0000  -77.8600
  1185.5000 -999.0000   12.7140  1185.5000 -999.0000  114.6350 -999.0000   49.7230    2.0030    2.5010    2.2330 -999.0000 -999.0000 -999.0000  -79.3280
  1186.0000 -999.0000   12.6730  1186.0000 -999.0000  127.5370 -999.0000   50.7410    2.0180    2.3720    2.3240 -999.0000 -999.0000 -999.0000  -80.5850
  1186.5000 -999.0000   12.6960  1186.5000 -999.0000  143.9120 -999.0000   50.3280    1.6430    2.2580    2.4180 -999.0000 -999.0000 -999.0000  -80.8710
  1187.0000 -999.0000   13.0090  1187.0000 -999.0000  157.5340 -999.0000   49.2240    1.3570    2.1500    2.5360 -999.0000 -999.0000 -999.0000  -81.7810
  1187.5000 -999.0000   13.3980  1187.5000 -999.0000  170.0400 -999.0000   49.6060    1.4180    2.0460    2.0050 -999.0000 -999.0000 -999.0000  -82.9630
  1188.0000 -999.0000   13.7150  1188.0000 -999.0000  176.6240 -999.0000   50.1450    1.5080    1.9480    1.3950 -999.0000 -999.0000 -999.0000  -81.5040
  1188.5000 -999.0000   13.7790  1188.5000 -999.0000  180.3210 -999.0000   50.7240    1.6040    1.8620    1.4610 -999.0000 -999.0000 -999.0000  -81.4100
  1189.0000 -999.0000   13.7590  1189.0000 -999.0000  181.3360 -999.0000   51.7090    1.7060    1.8210    1.5550 -999.0000 -999.0000 -999.0000  -81.7630
  1189.5000 -999.0000   13.7400  1189.5000 -999.0000  172.0760 -999.0000   52.7440    1.8150    1.7820    1.6890 -999.0000 -999.0000 -999.0000  -80.2060
  1190.0000 -999.0000   13.6800  1190.0000 -999.0000  163.9800 -999.0000   54.3340    1.9280    1.7440    1.6570 -999.0000 -999.0000 -999.0000  -81.6020
  1190.5000 -999.0000   13.5660  1190.5000 -999.0000  161.8570 -999.0000   55.8670    2.0270    1.7060    1.6100 -999.0000 -999.0000 -999.0000  -82.9930
  1191.0000 -999.0000   13.3240  1191.0000 -999.0000  162.5200 -999.0000   59.0450    2.1320    1.6690    1.5680 -999.0000 -999.0000 -999.0000  -82.2980
  1191.5000 -999.0000   12.7450  1191.5000 -999.0000  163.1830 -999.0000   62.1890    2.1960    1.6330    1.5460 -999.0000 -999.0000 -999.0000  -81.4020
  1192.0000 -999.0000   12.5630  1192.0000 -999.0000  163.8460 -999.0000   64.5040    2.2510    1.6070    1.5210 -999.0000 -999.0000 -999.0000  -80.8490
  1192.5000 -999.0000   12.3820  1192.5000 -999.0000  163.0780 -999.0000   66.7600    2.2930    1.7590    1.6110 -999.0000 -999.0000 -999.0000  -81.3860
