~Version Information Section
 VERS.      2.0         :CWLS LOG ASCII STANDARD - VERSION 2.0
 WRAP.      NO          :SINGLE LINE PER DEPTH STEP
 CREA.      8/24/2011 12:51:22
~Well Information Section
#MNEM.UNIT                      VALUE/NAME                 DESCRIPTION
#----.----     ----------------------------------   --------------------
 STRT .FT           1140.0000                         :START DEPTH
 STOP .FT          13950.0000                         :STOP DEPTH
 STEP .FT              0.5000                         :STEP VALUE
 NULL .             -999.0000                         :NULL VALUE
 SRVC .          SCH                                  :Service Company/Logging company
 DATE .          08/24/2011                           :LAS file Creation Date
 WELL .          PENOBSCOT L-30                       :Well Name
 COMP .          SHELL CANADA RESOURCES LIMITED       :Company
 FLD  .          Wildcat                              :Field
 STATE.          Nova Scotia Shelf                    :State
 COUNT.          Canada                               :Country
 LOC  .          44� 09' 43.558"N LAT|60� 04' 0   :Location
 LATI .          0                                    :Latitude/Northing
 LONG .          0                                    :Longitude/Easting
 PDAT .          RT                                   :Permanent Datum
 EPDAT.          0.0000                               :Elevation of Permanent Datum
 LGMEA.          RT                                   :Log Measured from
 APDAT.          98.0000                              :Elevation Above Permanent Datum
 KB   .          99.0000                              :KB Elevation
 GL   .          -451.0000                            :GL Elevation
 RWS  .          0                                    :Def_Rw
 WST  .          0                                    :Def_Rwt
 ERT  .          0.0000                               :RT Elevation
 CNTY .          NOVA SCOTIA SHELF                    :County
~Curve Information Section
#MNEM  .UNIT         CURVE DESCRIPTION
#----  .----         -------------------------
 DEPTH .FT           :1 Depth
 CALD  .IN           :2 Caliper    Caliper - Density
 CALS  .IN           :3 Caliper    Caliper - Sonic
 DEPT  .FT           :4 Depth
 DRHO  .G/CC         :5 Drho       Delta Rho
 DT    .US/F         :6 Sonic      Delta-T
 GRD   .GAPI         :7 GammaRay   Gamma Ray - Density
 GRS   .GAPI         :8 GammaRay   Gamma Ray - Sonic
 ILD   .OHMM         :9 DeepRes    Deep Induction Standard Processed Resistivity
 ILM   .OHMM         :10 MedRes     Medium Induction Standard Processed Resistivity
 LL8   .OHMM         :11 ShalRes    Latero-Log 8
 NPHILS.V/V          :12 Neutron    Neutron Porosity - Ls Mtx
 NPHISS.V/V          :13 Neutron    Neutron Porosity - Ss Mtx
 RHOB  .G/CC         :14 Density    Bulk Density
 SP    .MV           :15 SP         Spontaneous Potential
~Parameter Information Section
#MNEM.UNIT                      VALUE                       DESCRIPTION
#----.----     ----------------------------------   --------------------
~A  DEPTH     CALD      CALS      DEPT      DRHO       DT        GRD       GRS       ILD       ILM       LL8     NPHILS    NPHISS     RHOB       SP    
# ...
 11369.0000    9.2110    8.3670 11369.0000    0.1950   75.3130   51.7890   74.1480    5.6940    7.0940    8.2830    0.2160 -999.0000    2.6180  -38.5230
 11369.5000    9.1490    8.3650 11369.5000    0.2000   72.2550   38.0600   65.3620    5.9860    7.3710    8.0980    0.2010 -999.0000    2.6380  -43.7090
 11370.0000    9.0850    8.3630 11370.0000    0.1550   65.8270   23.4240   46.3550    6.4240    8.5060    9.7020    0.1870 -999.0000    2.6490  -48.8930
 11370.5000    9.0790    8.3600 11370.5000    0.1870   59.6670   14.9060   29.6260    7.1660   11.1650   17.8990    0.1250 -999.0000    2.6640  -54.0740
 11371.0000    9.0950    8.3580 11371.0000    0.1680   58.1870   12.6410   20.3880    7.9930   14.6680   43.2280    0.0620 -999.0000    2.6800  -59.5730
 11371.5000    9.1100    8.3550 11371.5000    0.1190   57.3640   11.3580   16.9860    8.9170   19.3600   67.9420    0.0310 -999.0000    2.6590  -65.3910
 11372.0000    9.0920    8.3530 11372.0000    0.0680   59.1270   11.0640   14.4260   10.1750   22.7610  161.1860    0.0170 -999.0000    2.6500  -71.2090
 11372.5000    9.0500    8.3510 11372.5000    0.0560   60.5490   11.8260   11.8120    8.8600   28.1690  150.3130    0.0320 -999.0000    2.5990  -77.0270
 11373.0000    9.0080    8.3480 11373.0000    0.0450   62.6460   12.5830   13.2190    7.4380   25.1470  130.5350    0.0460 -999.0000    2.5560  -82.8450
 11373.5000    8.9660    8.3490 11373.5000    0.0410   64.7430   13.3030   15.0260    6.2450   18.7840   82.8470    0.0600 -999.0000    2.5190  -88.6630
 11374.0000    8.9410    8.3500 11374.0000    0.0470   67.8220   13.7650   16.8280    5.2450   13.3140   48.8920    0.0690 -999.0000    2.4870  -94.4890
 11374.5000    8.9520    8.3510 11374.5000    0.0570   67.4130   14.2270   18.6300    4.4420    9.4370   28.8250    0.0730 -999.0000    2.4950 -100.5440
 11375.0000    8.9630    8.3520 11375.0000    0.0860   66.5820   14.6920   19.5650    3.7910    6.6790   21.7330    0.0770 -999.0000    2.5040 -105.8990
 11375.5000    8.9740    8.3530 11375.5000    0.1110   67.3970   14.3730   17.8640    3.2350    5.0960   16.2110    0.0820 -999.0000    2.5030 -109.6120
 11376.0000    8.9850    8.3540 11376.0000    0.0990   68.4160   13.4270   16.1580    2.7620    4.0390   18.0520    0.0860 -999.0000    2.4940 -111.4090
 11376.5000    8.9960    8.3550 11376.5000    0.0880   69.4350   14.5090   14.6940    2.3570    3.5530   20.5560    0.0840 -999.0000    2.4760 -112.2480
 11377.0000    9.0070    8.3560 11377.0000    0.0740   70.6560   15.6580   16.3260    2.0680    3.2910   15.7480    0.0850 -999.0000    2.4470 -113.0930
 11377.5000    9.0190    8.3570 11377.5000    0.0830   69.6680   16.8050   16.9320    1.9410    3.0480   13.5720    0.0880 -999.0000    2.4690 -112.2590
 11378.0000    9.0300    8.3580 11378.0000    0.1030   69.3140   17.9520   15.0710    1.8220    2.8220   14.5040    0.0920 -999.0000    2.4650 -111.0800
 11378.5000    9.0410    8.3590 11378.5000    0.1260   69.3140   19.1000   14.9100    1.6600    2.5390   15.3460    0.0870 -999.0000    2.4610 -109.6930
 11379.0000    9.0520    8.3600 11379.0000    0.1380   67.0510   19.5950   17.1190    1.7710    2.6390   14.2260    0.0830 -999.0000    2.5140 -107.2570
 11379.5000    9.0630    8.3610 11379.5000    0.1330   64.8620   17.8410   19.2520    2.0020    2.8080   13.0200    0.0780 -999.0000    2.5560 -103.7480
 11380.0000    9.0750    8.3620 11380.0000    0.1070   62.6700   19.2960   20.3200    2.2630    2.9810   15.2770    0.0740 -999.0000    2.5970  -99.7690
 11380.5000    9.0460    8.3620 11380.5000    0.0840   60.6670   21.3320   21.3610    2.5580    3.4230   29.7730    0.0690 -999.0000    2.6270  -95.7880
 11381.0000    9.0130    8.3630 11381.0000    0.0760   63.2220   23.3560   22.4030    2.8920    3.9070   56.3320    0.0680 -999.0000    2.5690  -91.8070
 11381.5000    8.9800    8.3640 11381.5000    0.0490   65.5940   24.7370   23.4470    3.2690    4.4600   88.8760    0.0750 -999.0000    2.5380  -87.8370
 11382.0000    8.9480    8.3650 11382.0000    0.0140   67.9190   25.8040   23.5940    3.6960    5.0920   29.6880    0.0820 -999.0000    2.5160  -85.2300
 11382.5000    8.9450    8.3660 11382.5000    0.0470   67.1230   28.7250   23.0110    4.1780    5.8120   21.4180    0.0880 -999.0000    2.5030  -83.2510
 11383.0000    8.9440    8.3670 11383.0000    0.0790   67.2280   32.4760   24.1590    4.7230    6.6350   24.6360    0.0850 -999.0000    2.5190  -81.2740
 11383.5000    8.9420    8.3680 11383.5000    0.1050   68.3680   36.2510   26.0510    4.8990    7.5740   27.9010    0.0820 -999.0000    2.5210  -79.0230
 11384.0000    8.9400    8.3690 11384.0000    0.0980   67.4250   44.8410   28.8650    4.9790    8.1720   23.5660    0.0790 -999.0000    2.5180  -75.1760
 11384.5000    8.9380    8.3700 11384.5000    0.1050   66.1810   57.2100   33.4990    5.0620    7.3930   21.1270    0.0870 -999.0000    2.5200  -70.1270
 11385.0000    8.9740    8.3710 11385.0000    0.0930   67.6020   71.3690   39.4800    5.1450    6.8910   33.9680    0.0960 -999.0000    2.5580  -64.5090
 11385.5000    9.0320    8.3720 11385.5000    0.0800   69.7140   88.3310   55.4320    5.2610    6.4220   23.3400    0.1060 -999.0000    2.6050  -58.7240
 11386.0000    9.0900    8.3730 11386.0000    0.0830   71.8900   97.5300   72.4210    5.4380    6.1010   15.3950    0.1260 -999.0000    2.6400  -52.6290
 11386.5000    9.1480    8.3740 11386.5000    0.0710   74.0660  100.1430   86.8080    5.6200    6.5660   14.5970    0.1610 -999.0000    2.6230  -46.5250
 11387.0000    9.1170    8.3750 11387.0000    0.0750   75.9860   96.4620   97.8730    5.8670    6.9580   12.5700    0.1960 -999.0000    2.5790  -40.3960
 11387.5000    9.0430    8.3760 11387.5000    0.1150   76.6690   90.3250   95.0490    6.1690    7.3730   10.1220    0.2170 -999.0000    2.5910  -39.0590
 11388.0000    8.9700    8.3770 11388.0000    0.1550   74.1460   82.4640   90.2220    6.4870    8.1800    8.7120    0.2320 -999.0000    2.5700  -37.7780
 11388.5000    8.8960    8.3780 11388.5000    0.1960   71.0380   74.6090   76.7870    6.8220    9.7020   10.5790    0.2220 -999.0000    2.5930  -38.3220
 11389.0000    8.8250    8.3790 11389.0000    0.2240   67.9380   66.7450   63.4700    7.1730   11.5090   14.3860    0.1820 -999.0000    2.5760  -40.5120
 11389.5000    8.8220    8.3790 11389.5000    0.2090   65.9700   61.9290   54.0500    7.5430   14.2650   22.6670    0.1420 -999.0000    2.5900  -42.6900
 11390.0000    8.8180    8.3800 11390.0000    0.1900   64.0920   60.2690   49.5530    7.9510   12.9060   31.8660    0.1130 -999.0000    2.6050  -44.6130
 11390.5000    8.8140    8.3810 11390.5000    0.1990   66.5190   61.7590   60.1620    6.9160   11.2770   26.3870    0.1040 -999.0000    2.6220  -46.1280
 11391.0000    8.8100    8.3820 11391.0000    0.1880   69.9200   59.9720   68.2220    5.9720    9.8540   16.7500    0.1230 -999.0000    2.6090  -47.6420
 11391.5000    8.7920    8.3830 11391.5000    0.1430   73.3210   54.5150   76.1190    5.1560    8.6110   14.5140    0.1520 -999.0000    2.5730  -49.1630
 11392.0000    8.7600    8.3840 11392.0000    0.1710   75.5320   33.6870   71.1810    4.4520    7.5240    7.5960    0.1800 -999.0000    2.5350  -53.1740
 11392.5000    8.7280    8.3850 11392.5000    0.1950   73.6340   31.1800   55.8140    3.8440    6.6920   10.7480    0.2100 -999.0000    2.4970  -58.5400
 11393.0000    8.6960    8.3860 11393.0000    0.2340   72.0490   35.5120   38.2580    3.3190    6.0600   16.3540    0.1820 -999.0000    2.4540  -63.9040
 11393.5000    8.6660    8.3870 11393.5000    0.1940   73.9920   40.4720   31.8070    2.8660    5.0250   20.7370    0.1650 -999.0000    2.4610  -69.2680
 11394.0000    8.6560    8.3880 11394.0000    0.1630   75.7780   47.0500   36.6280    2.4750    3.8650   25.4390    0.1530 -999.0000    2.4750  -74.6330
 11394.5000    8.6460    8.3890 11394.5000    0.1230   76.5880   42.8130   42.0440    2.1700    3.2760   13.2620    0.1460 -999.0000    2.4840  -79.9860
 11395.0000    8.6350    8.3900 11395.0000    0.1330   76.4060   30.7090   45.3460    1.9080    2.7910    6.4450    0.1390 -999.0000    2.4900  -86.2460
