~Version Information Section
 VERS.      2.0         :CWLS LOG ASCII STANDARD - VERSION 2.0
 WRAP.      NO          :SINGLE LINE PER DEPTH STEP
 CREA.      8/24/2011 12:51:22
~Well Information Section
#MNEM.UNIT                      VALUE/NAME                 DESCRIPTION
#----.----     ----------------------------------   --------------------
 STRT .FT           1140.0000                         :START DEPTH
 STOP .FT          13950.0000                         :STOP DEPTH
 STEP .FT              0.5000                         :STEP VALUE
 NULL .             -999.0000                         :NULL VALUE
 SRVC .          SCH                                  :Service Company/Logging company
 DATE .          08/24/2011                           :LAS file Creation Date
 WELL .          PENOBSCOT L-30                       :Well Name
 COMP .          SHELL CANADA RESOURCES LIMITED       :Company
 FLD  .          Wildcat                              :Field
 STATE.          Nova Scotia Shelf                    :State
 COUNT.          Canada                               :Country
 LOC  .          44� 09' 43.558"N LAT|60� 04' 0   :Location
 LATI .          0                                    :Latitude/Northing
 LONG .          0                                    :Longitude/Easting
 PDAT .          RT                                   :Permanent Datum
 EPDAT.          0.0000                               :Elevation of Permanent Datum
 LGMEA.          RT                                   :Log Measured from
 APDAT.          98.0000                              :Elevation Above Permanent Datum
 KB   .          99.0000                              :KB Elevation
 GL   .          -451.0000                            :GL Elevation
 RWS  .          0                                    :Def_Rw
 WST  .          0                                    :Def_Rwt
 ERT  .          0.0000                               :RT Elevation
 CNTY .          NOVA SCOTIA SHELF                    :County
~Curve Information Section
#MNEM  .UNIT         CURVE DESCRIPTION
#----  .----         -------------------------
 DEPTH .FT           :1 Depth
 CALD  .IN           :2 Caliper    Caliper - Density
 CALS  .IN           :3 Caliper    Caliper - Sonic
 DEPT  .FT           :4 Depth
 DRHO  .G/CC         :5 Drho       Delta Rho
 DT    .US/F         :6 Sonic      Delta-T
 GRD   .GAPI         :7 GammaRay   Gamma Ray - Density
 GRS   .GAPI         :8 GammaRay   Gamma Ray - Sonic
 ILD   .OHMM         :9 DeepRes    Deep Induction Standard Processed Resistivity
 ILM   .OHMM         :10 MedRes     Medium Induction Standard Processed Resistivity
 LL8   .OHMM         :11 ShalRes    Latero-Log 8
 NPHILS.V/V          :12 Neutron    Neutron Porosity - Ls Mtx
 NPHISS.V/V          :13 Neutron    Neutron Porosity - Ss Mtx
 RHOB  .G/CC         :14 Density    Bulk Density
 SP    .MV           :15 SP         Spontaneous Potential
~Parameter Information Section
#MNEM.UNIT                      VALUE                       DESCRIPTION
#----.----     ----------------------------------   --------------------
~A  DEPTH     CALD      CALS      DEPT      DRHO       DT        GRD       GRS       ILD       ILM       LL8     NPHILS    NPHISS     RHOB       SP    
# ...
 12217.0000   15.3330   13.8140 12217.0000    0.2040   78.7820  108.3940   82.2140    5.1680    4.6190    5.9370    0.3370 -999.0000    2.4170  -91.9000
 12217.5000   15.5030   13.7260 12217.5000    0.2000   80.2260  110.1250   83.2100    5.1700    4.6960    6.6430    0.3490 -999.0000    2.4470  -91.7650
 12218.0000   15.5650   13.6730 12218.0000    0.2230   80.4780  107.1700   83.3900    5.0320    4.4960    6.2440    0.3350 -999.0000    2.4550  -91.6300
 12218.5000   15.6380   13.7730 12218.5000    0.2390   81.3320  105.1640   80.9780    4.8930    4.4050    5.8460    0.3220 -999.0000    2.4230  -91.6470
 12219.0000   15.7540   13.9230 12219.0000    0.2270   81.0670  108.7650   78.8350    5.0740    4.4450    6.0370    0.3290 -999.0000    2.4000  -91.8930
 12219.5000   15.7760   13.7200 12219.5000    0.2080   82.2930  110.8110   80.9620    5.0410    4.3120    6.2310    0.3370 -999.0000    2.3860  -92.1400
 12220.0000   15.7630   13.8940 12220.0000    0.2220   83.0870  108.3100   83.1070    5.0040    4.1890    6.0170    0.3390 -999.0000    2.4180  -92.3860
 12220.5000   15.7640   13.9850 12220.5000    0.2230   84.0970  111.8890   82.9980    4.9930    4.0700    5.7520    0.3400 -999.0000    2.3730  -92.5440
 12221.0000   15.7650   13.9470 12221.0000    0.2470   85.3710  114.7920   81.3370    4.9830    4.0030    5.4990    0.3440 -999.0000    2.3870  -92.2270
 12221.5000   15.7660   13.9280 12221.5000    0.2480   82.6510  115.6080   81.2310    4.8050    4.0760    5.3360    0.3480 -999.0000    2.3650  -91.9130
 12222.0000   15.7670   13.9760 12222.0000    0.2090   84.2750  111.3080   83.2680    4.6110    4.0500    5.5970    0.3540 -999.0000    2.3980  -91.5990
 12222.5000   15.7680   14.0230 12222.5000    0.2460   82.1760  109.3410   85.3130    4.6970    4.0210    5.7660    0.3460 -999.0000    2.4450  -91.2850
 12223.0000   15.7690   14.0580 12223.0000    0.2300   79.7020  113.9530   83.7360    4.7900    4.2590    5.7490    0.3340 -999.0000    2.4720  -90.9690
 12223.5000   15.7700   13.8750 12223.5000    0.2110   80.7820  115.3350   79.1240    4.8840    4.4740    5.7400    0.3230 -999.0000    2.4520  -91.3240
 12224.0000   15.7710   13.6920 12224.0000    0.1920   80.1780  114.0380   76.7280    4.9800    4.6950    6.4740    0.3180 -999.0000    2.4630  -91.7680
 12224.5000   15.7710   13.6510 12224.5000    0.1850   81.6410  114.2990   77.6760    5.0740    4.5620    6.9520    0.3170 -999.0000    2.4750  -91.8990
 12225.0000   15.7710   13.7840 12225.0000    0.1980   84.0100  117.5950   79.0280    4.9860    4.4330    6.4590    0.3130 -999.0000    2.4370  -91.6880
 12225.5000   15.7680   13.9200 12225.5000    0.2280   82.6840  120.9100   80.3760    4.9020    4.3090    6.2660    0.3100 -999.0000    2.4400  -91.4790
 12226.0000   15.7650   14.0570 12226.0000    0.2260   82.2390  123.8610   81.7250    4.8190    4.1880    6.1680    0.3300 -999.0000    2.3880  -91.2710
 12226.5000   15.7630   14.1930 12226.5000    0.2170   82.9560  125.8300   82.8600    4.7310    4.0700    5.8250    0.3490 -999.0000    2.3430  -91.0620
 12227.0000   15.7600   14.3320 12227.0000    0.2140   82.2520  121.9200   81.2750    4.6450    4.0020    5.5010    0.3680 -999.0000    2.3340  -90.8530
 12227.5000   15.7570   14.1730 12227.5000    0.2470   82.6270  119.6780   80.0450    4.5610    4.0650    5.2630    0.3580 -999.0000    2.3090  -91.0580
 12228.0000   15.7550   14.2640 12228.0000    0.2380   83.4430  121.7070   79.5090    4.4780    4.1100    5.5790    0.3520 -999.0000    2.2670  -91.3910
 12228.5000   15.7520   14.1890 12228.5000    0.2270   81.7900  123.5080   81.1810    4.4250    4.1560    5.8510    0.3550 -999.0000    2.3350  -91.7240
 12229.0000   15.7500   13.9830 12229.0000    0.2310   80.7370  118.6850   82.9400    4.6570    4.2410    6.1350    0.3540 -999.0000    2.4060  -92.0560
 12229.5000   15.7470   14.0940 12229.5000    0.2440   82.8720  117.0650   84.7250    4.8360    4.4380    6.3460    0.3410 -999.0000    2.4530  -92.3920
 12230.0000   15.7450   14.1830 12230.0000    0.2480   80.7840  117.4330   82.2770    5.0220    4.6440    5.9270    0.3280 -999.0000    2.4310  -92.3130
 12230.5000   15.7200   14.0130 12230.5000    0.2300   78.1420  119.1820   79.0460    5.2150    4.8600    5.4840    0.3270 -999.0000    2.3870  -92.1580
 12231.0000   15.4310   13.8470 12231.0000    0.2150   76.5340  117.3450   79.5420    5.3140    5.1440    6.3190    0.3260 -999.0000    2.4470  -92.0030
 12231.5000   15.0810   13.6820 12231.5000    0.2470   78.1940  112.9700   81.4530    5.3560    5.0640    7.5310    0.3210 -999.0000    2.4900  -91.8550
 12232.0000   14.6540   13.7440 12232.0000    0.2350   79.8600  108.7640   82.7870    5.3980    4.9560    7.9000    0.3110 -999.0000    2.4550  -92.2650
 12232.5000   14.7970   13.7870 12232.5000    0.2140   81.7690  110.3840   84.0670    5.4400    4.8520    7.1180    0.3010 -999.0000    2.4470  -92.5440
 12233.0000   14.9740   13.5560 12233.0000    0.2270   82.1910  111.8990   85.3490    5.4830    4.7490    6.5570    0.2860 -999.0000    2.4270  -92.3200
 12233.5000   14.8150   13.4130 12233.5000    0.2490   82.1110  108.9050   86.5080    5.5340    4.6320    5.9530    0.2920 -999.0000    2.4060  -92.0960
 12234.0000   15.7510   13.8180 12234.0000    0.2490   82.2930  107.5590   84.5850    5.4250    4.6410    6.0360    0.3050 -999.0000    2.4210  -91.8730
 12234.5000   15.7410   13.8610 12234.5000    0.2490   81.5040  112.9710   83.5410    5.2950    4.6520    6.1390    0.3170 -999.0000    2.3960  -91.6500
 12235.0000   15.7400   13.9880 12235.0000    0.2360   80.7150  114.2500   84.8550    5.1690    4.6640    6.2430    0.3350 -999.0000    2.3760  -91.4270
 12235.5000   15.7380   14.2220 12235.5000    0.2480   82.0700  111.5710   83.3890    5.0450    4.6740    6.3480    0.3330 -999.0000    2.4240  -91.3520
 12236.0000   15.7370   14.2770 12236.0000    0.2480   83.8490  106.5250   81.9260    4.9240    4.4840    6.4560    0.3280 -999.0000    2.5100  -91.8400
 12236.5000   15.7360   14.2720 12236.5000    0.2480   84.5160  108.4380   82.2350    4.8070    4.3150    6.5510    0.3290 -999.0000    2.4800  -92.3290
 12237.0000   15.7350   14.5160 12237.0000    0.1940   84.3830  111.9000   84.7230    4.6960    4.1900    6.0830    0.3320 -999.0000    2.4020  -92.5180
 12237.5000   15.7340   14.7140 12237.5000    0.1750   81.9230  116.9190   87.2210    4.8750    4.3720    5.6360    0.3420 -999.0000    2.3190  -92.3480
 12238.0000   15.7340   14.6720 12238.0000    0.1920   78.4660  120.1240   88.0490    5.0560    4.5260    5.8580    0.3530 -999.0000    2.2930  -92.1790
 12238.5000   15.4220   14.3710 12238.5000    0.1460   79.0950  122.3150   86.4610    5.2430    4.6850    6.1290    0.3620 -999.0000    2.3260  -92.3220
 12239.0000   15.1660   14.0710 12239.0000    0.1810   79.8640  124.4660   83.7770    5.4370    4.8510    6.4130    0.3450 -999.0000    2.4240  -92.5470
 12239.5000   15.0250   13.7720 12239.5000    0.2260   79.3420  122.7910   82.0290    5.6380    5.0220    6.7110    0.3310 -999.0000    2.4780  -92.7260
 12240.0000   14.6000   13.7350 12240.0000    0.2260   77.6900  124.7010   81.1690    5.8320    5.1990    6.9230    0.3160 -999.0000    2.4480  -92.5770
 12240.5000   14.3550   13.8230 12240.5000    0.1960   80.2510  122.0030   80.3080    5.9350    5.3820    7.0820    0.3160 -999.0000    2.4020  -92.4320
 12241.0000   14.3170   13.8000 12241.0000    0.1640   79.7400  118.9920   81.4850    6.0400    5.6360    7.2430    0.3170 -999.0000    2.3620  -92.2880
 12241.5000   14.5100   13.7760 12241.5000    0.2130   78.7690  117.8160   83.8550    6.2030    5.4480    7.4450    0.3070 -999.0000    2.3440  -92.1430
 12242.0000   14.9730   13.8290 12242.0000    0.2490   79.2130  118.1350   83.5010    6.1710    5.0740    7.2720    0.3030 -999.0000    2.3380  -91.9980
 12242.5000   15.6520   13.9590 12242.5000    0.2490   80.1310  120.2220   83.7630    6.1050    5.0910    7.0570    0.3070 -999.0000    2.2790  -91.8540
 12243.0000   15.6740   14.0880 12243.0000    0.2500   79.6690  117.2170   86.0040    6.0400    5.1180    6.8470    0.3100 -999.0000    2.3220  -91.7090
